[{"name":"Sahnewal","geoJSON":{"type":"Point","coordinates":[75.9570722404,30.8503598562]}},{"name":"Solapur","geoJSON":{"type":"Point","coordinates":[75.9330597711,17.6254151836]}},{"name":"Birsa Munda","geoJSON":{"type":"Point","coordinates":[85.3235970369,23.317724599]}},{"name":"Ahwaz","geoJSON":{"type":"Point","coordinates":[48.7471065436,31.3431585561]}},{"name":"Gwalior","geoJSON":{"type":"Point","coordinates":[78.2172186546,26.2854876979]}},{"name":"Hodeidah Int'l","geoJSON":{"type":"Point","coordinates":[42.9710963019,14.7552534414]}},{"name":"Devi Ahilyabai Holkar Int'l","geoJSON":{"type":"Point","coordinates":[75.8092915006,22.7277491876]}},{"name":"Gandhinagar","geoJSON":{"type":"Point","coordinates":[73.8105674925,19.9660205673]}},{"name":"Chandigarh Int'l","geoJSON":{"type":"Point","coordinates":[76.8017261105,30.670724895]}},{"name":"Aurangabad","geoJSON":{"type":"Point","coordinates":[75.3958432922,19.8672969621]}},{"name":"Faisalabad Int'l","geoJSON":{"type":"Point","coordinates":[72.9878190922,31.3627435481]}},{"name":"Omsk Tsentralny","geoJSON":{"type":"Point","coordinates":[73.3163595377,54.9576482934]}},{"name":"Novosibirsk Tolmachev","geoJSON":{"type":"Point","coordinates":[82.6671524526,55.0095847136]}},{"name":"Zaporozhye Int'l","geoJSON":{"type":"Point","coordinates":[35.3018728575,47.8732635579]}},{"name":"Simpang Tiga","geoJSON":{"type":"Point","coordinates":[101.4465692984,0.464600873]}},{"name":"Rota Int'l","geoJSON":{"type":"Point","coordinates":[145.2439802986,14.1717712971]}},{"name":"Surgut","geoJSON":{"type":"Point","coordinates":[73.4084964764,61.3401672194]}},{"name":"Tiruchirappalli","geoJSON":{"type":"Point","coordinates":[78.7089578747,10.7603571307]}},{"name":"Turbat Int'l","geoJSON":{"type":"Point","coordinates":[63.0279333519,25.98879459]}},{"name":"Quetta Int'l","geoJSON":{"type":"Point","coordinates":[66.9487311481,30.2490431862]}},{"name":"Zahedan Int'l","geoJSON":{"type":"Point","coordinates":[60.9007085649,29.4752941957]}},{"name":"Abdul Rachman Saleh","geoJSON":{"type":"Point","coordinates":[112.7114186173,-7.9299800284]}},{"name":"Barnaul","geoJSON":{"type":"Point","coordinates":[83.5504532124,53.3633850813]}},{"name":"Adampur","geoJSON":{"type":"Point","coordinates":[75.7584828456,31.4329422398]}},{"name":"Bareilly","geoJSON":{"type":"Point","coordinates":[79.4520026877,28.4218087161]}},{"name":"Dhamial","geoJSON":{"type":"Point","coordinates":[73.0320498392,33.5614146279]}},{"name":"Cheongju Int'l","geoJSON":{"type":"Point","coordinates":[127.4959161247,36.7220227767]}},{"name":"Gwangju","geoJSON":{"type":"Point","coordinates":[126.8108394812,35.140005139]}},{"name":"Daegu Int'l","geoJSON":{"type":"Point","coordinates":[128.6375376999,35.8999277969]}},{"name":"Ulsan","geoJSON":{"type":"Point","coordinates":[129.3557310475,35.5928957527]}},{"name":"Radin Inten II","geoJSON":{"type":"Point","coordinates":[105.1760604192,-5.2425667771]}},{"name":"Allahabad","geoJSON":{"type":"Point","coordinates":[81.7317271462,25.4435220278]}},{"name":"Chelyabinsk","geoJSON":{"type":"Point","coordinates":[61.512258974,55.2977919496]}},{"name":"Tainan","geoJSON":{"type":"Point","coordinates":[120.2097333181,22.9506679183]}},{"name":"Taichung","geoJSON":{"type":"Point","coordinates":[120.6307035476,24.2666555567]}},{"name":"Rotterdam The Hague","geoJSON":{"type":"Point","coordinates":[4.4338443496,51.9491301899]}},{"name":"Voronezh-Chertovitskoye","geoJSON":{"type":"Point","coordinates":[39.2254496448,51.8126171268]}},{"name":"Liverpool John Lennon","geoJSON":{"type":"Point","coordinates":[-2.8586206578,53.3363751054]}},{"name":"Vishakapatnam","geoJSON":{"type":"Point","coordinates":[83.2235216387,17.7279577384]}},{"name":"Sultan Hasanuddin Int'l","geoJSON":{"type":"Point","coordinates":[119.5456913422,-5.0589368946]}},{"name":"Vava'u Int'l","geoJSON":{"type":"Point","coordinates":[-173.9680939442,-18.5860058551]}},{"name":"Newcastle Int'l","geoJSON":{"type":"Point","coordinates":[-1.7103457841,55.0370848608]}},{"name":"Goloson Int'l","geoJSON":{"type":"Point","coordinates":[-86.851468502,15.7451596659]}},{"name":"Madinah Int'l","geoJSON":{"type":"Point","coordinates":[39.699135956,24.5442339606]}},{"name":"Mirabel Int'l","geoJSON":{"type":"Point","coordinates":[-74.0287382985,45.6832250979]}},{"name":"Palanga Int'l","geoJSON":{"type":"Point","coordinates":[21.0974463986,55.9713426235]}},{"name":"Jaipur Int'l","geoJSON":{"type":"Point","coordinates":[75.8010104193,26.8211798101]}},{"name":"Sonari","geoJSON":{"type":"Point","coordinates":[86.1724662364,22.815414511]}},{"name":"Yenisehir","geoJSON":{"type":"Point","coordinates":[29.54492,40.2555395007]}},{"name":"\u015eakirpa\u015fa","geoJSON":{"type":"Point","coordinates":[35.2969614268,36.9852090642]}},{"name":"Kodiak","geoJSON":{"type":"Point","coordinates":[-152.4856385152,57.748592107]}},{"name":"Amarillo Int'l","geoJSON":{"type":"Point","coordinates":[-101.7053527727,35.2184031919]}},{"name":"Alice Springs","geoJSON":{"type":"Point","coordinates":[133.902918,-23.801968]}},{"name":"Raja Sansi Int'l","geoJSON":{"type":"Point","coordinates":[74.807155972,31.7068220259]}},{"name":"Biju Patnaik","geoJSON":{"type":"Point","coordinates":[85.8168899544,20.2526659755]}},{"name":"Bethel","geoJSON":{"type":"Point","coordinates":[-161.8389869594,60.7787379834]}},{"name":"Palonegro","geoJSON":{"type":"Point","coordinates":[-73.1809207725,7.127709154]}},{"name":"Birmingham Int'l","geoJSON":{"type":"Point","coordinates":[-86.7523773615,33.5618672828]}},{"name":"Broken Hill","geoJSON":{"type":"Point","coordinates":[141.4704073031,-31.9989967375]}},{"name":"Logan Int'l","geoJSON":{"type":"Point","coordinates":[-108.5369293881,45.8036855715]}},{"name":"Bismarck Muni.","geoJSON":{"type":"Point","coordinates":[-100.7574713037,46.7751066662]}},{"name":"Del Bajio Int'l","geoJSON":{"type":"Point","coordinates":[-101.4787533825,20.9858871212]}},{"name":"Benin","geoJSON":{"type":"Point","coordinates":[5.6036825601,6.3171668921]}},{"name":"Bourgas","geoJSON":{"type":"Point","coordinates":[27.5164093663,42.5670835488]}},{"name":"Bremen","geoJSON":{"type":"Point","coordinates":[8.7858617703,53.0522871042]}},{"name":"Jacinto Lara Int'l","geoJSON":{"type":"Point","coordinates":[-69.356102,10.0453]}},{"name":"Brownsville-South Padre Island Int'l","geoJSON":{"type":"Point","coordinates":[-97.4317653402,25.9062743545]}},{"name":"Bristol Int'l","geoJSON":{"type":"Point","coordinates":[-2.7108646913,51.3862934189]}},{"name":"Baton Rouge Metro","geoJSON":{"type":"Point","coordinates":[-91.1567544048,30.5326138041]}},{"name":"Bratislava-M.R. \u0160tef\u00e1nik","geoJSON":{"type":"Point","coordinates":[17.1999850022,48.1698379063]}},{"name":"Burlington Int'l","geoJSON":{"type":"Point","coordinates":[-73.1550787791,44.4692066041]}},{"name":"Columbia Metro","geoJSON":{"type":"Point","coordinates":[-81.1093352429,33.9342054584]}},{"name":"Calicut Int'l","geoJSON":{"type":"Point","coordinates":[75.9509930631,11.1395520526]}},{"name":"Cocos (Keeling) Islands","geoJSON":{"type":"Point","coordinates":[96.8287472144,-12.1851585953]}},{"name":"Corfu Int'l (Ioannis Kapodistrias)","geoJSON":{"type":"Point","coordinates":[19.9147561642,39.6067554505]}},{"name":"Changchun Longjia Int'l","geoJSON":{"type":"Point","coordinates":[125.690456813,43.9930114796]}},{"name":"Charleston Int'l","geoJSON":{"type":"Point","coordinates":[-80.0369337438,32.8845301563]}},{"name":"Coimbatore","geoJSON":{"type":"Point","coordinates":[77.0388937723,11.0301415126]}},{"name":"Someseni","geoJSON":{"type":"Point","coordinates":[23.686981268,46.782662634]}},{"name":"Ignacio Agramonte","geoJSON":{"type":"Point","coordinates":[-77.8451039935,21.4247037282]}},{"name":"Casper\/Natrona County Int'l","geoJSON":{"type":"Point","coordinates":[-106.4644448097,42.8971900483]}},{"name":"Clark Int'l","geoJSON":{"type":"Point","coordinates":[120.5507702239,15.1876422424]}},{"name":"Yeager","geoJSON":{"type":"Point","coordinates":[-81.5964164668,38.3705914373]}},{"name":"Catania Fontanarossa","geoJSON":{"type":"Point","coordinates":[15.0674605007,37.4700728003]}},{"name":"Chetumal Int'l","geoJSON":{"type":"Point","coordinates":[-88.3242600415,18.5064342334]}},{"name":"Cardiff","geoJSON":{"type":"Point","coordinates":[-3.3395687643,51.3986220911]}},{"name":"Gerrard Smith","geoJSON":{"type":"Point","coordinates":[-79.879461638,19.6898653963]}},{"name":"Cozumel Int'l","geoJSON":{"type":"Point","coordinates":[-86.930406407,20.5115543772]}},{"name":"James M. Cox Dayton Int'l","geoJSON":{"type":"Point","coordinates":[-84.2204594238,39.8990402865]}},{"name":"Dubbo","geoJSON":{"type":"Point","coordinates":[148.569717,-32.218681]}},{"name":"Washington Nat'l","geoJSON":{"type":"Point","coordinates":[-77.0433373926,38.8537162012]}},{"name":"Durango Int'l","geoJSON":{"type":"Point","coordinates":[-104.533846025,24.1261948326]}},{"name":"Voloskoye","geoJSON":{"type":"Point","coordinates":[35.0939060225,48.3675718021]}},{"name":"Donetsk","geoJSON":{"type":"Point","coordinates":[37.7448085572,48.0691671286]}},{"name":"Santa Bernardina Int'l","geoJSON":{"type":"Point","coordinates":[-56.4992636214,-33.3591084476]}},{"name":"Edinburgh Int'l","geoJSON":{"type":"Point","coordinates":[-3.3642846851,55.9485540114]}},{"name":"Terrance B. Lettsome Int'l","geoJSON":{"type":"Point","coordinates":[-64.5371514366,18.4443618558]}},{"name":"Elko Reg.","geoJSON":{"type":"Point","coordinates":[-115.7864792322,40.8276058815]}},{"name":"Ensenada","geoJSON":{"type":"Point","coordinates":[-116.5957244004,31.7977139761]}},{"name":"V\u00e1gar","geoJSON":{"type":"Point","coordinates":[-7.2708,62.0625]}},{"name":"Hector Int'l","geoJSON":{"type":"Point","coordinates":[-96.825456127,46.9198178811]}},{"name":"Fresno Yosemite Int'l","geoJSON":{"type":"Point","coordinates":[-119.7200013236,36.7698128374]}},{"name":"Flagstaff Pulliam","geoJSON":{"type":"Point","coordinates":[-111.6746561717,35.1389116758]}},{"name":"Mundo Maya Int'l","geoJSON":{"type":"Point","coordinates":[-89.8778404227,16.9149741642]}},{"name":"Sioux Falls Reg.","geoJSON":{"type":"Point","coordinates":[-96.7313831018,43.5801934973]}},{"name":"Spokane Int'l","geoJSON":{"type":"Point","coordinates":[-117.5368366286,47.6254781278]}},{"name":"Exuma Int'l","geoJSON":{"type":"Point","coordinates":[-75.8726130853,23.5638829069]}},{"name":"Gibraltar","geoJSON":{"type":"Point","coordinates":[-5.3467718003,36.1512747504]}},{"name":"Gerald R. Ford Int'l","geoJSON":{"type":"Point","coordinates":[-85.5295732073,42.8847776021]}},{"name":"Triad Int'l","geoJSON":{"type":"Point","coordinates":[-79.9364867577,36.1053781999]}},{"name":"Great Falls Int'l","geoJSON":{"type":"Point","coordinates":[-111.3566847278,47.4822707293]}},{"name":"Gaziantep O\u011fuzeli Int'l","geoJSON":{"type":"Point","coordinates":[37.4738032522,36.9453633447]}},{"name":"Hubli","geoJSON":{"type":"Point","coordinates":[75.086315568,15.3591833386]}},{"name":"Hat Yai Int'l","geoJSON":{"type":"Point","coordinates":[100.3937512747,6.9363423194]}},{"name":"Hefei-Luogang","geoJSON":{"type":"Point","coordinates":[117.3041970159,31.7798576796]}},{"name":"Hurghada Int'l","geoJSON":{"type":"Point","coordinates":[33.8071606414,27.1804260918]}},{"name":"Kharkov Int'l","geoJSON":{"type":"Point","coordinates":[36.2822010774,49.9215360632]}},{"name":"Huntsville Int'l","geoJSON":{"type":"Point","coordinates":[-86.7749430563,34.6483344609]}},{"name":"Ibadan","geoJSON":{"type":"Point","coordinates":[3.9738133433,7.3603439727]}},{"name":"Kansas City Int'l","geoJSON":{"type":"Point","coordinates":[-97.4287387684,37.6529279604]}},{"name":"Wilmington Int'l","geoJSON":{"type":"Point","coordinates":[-77.910375656,34.2667840672]}},{"name":"Ilorin Int'l","geoJSON":{"type":"Point","coordinates":[4.4948403882,8.4353765194]}},{"name":"Falls Int'l","geoJSON":{"type":"Point","coordinates":[-93.3980027553,48.5659930848]}},{"name":"Inverness","geoJSON":{"type":"Point","coordinates":[-4.0635917559,57.5395002923]}},{"name":"Imperial Cty.","geoJSON":{"type":"Point","coordinates":[-115.5719955666,32.8339586686]}},{"name":"Jammu","geoJSON":{"type":"Point","coordinates":[74.8423077639,32.6810428886]}},{"name":"Madurai","geoJSON":{"type":"Point","coordinates":[78.0911394937,9.8371862788]}},{"name":"Jodhpur","geoJSON":{"type":"Point","coordinates":[73.0505491896,26.2637623458]}},{"name":"Jabalpur","geoJSON":{"type":"Point","coordinates":[80.0587438885,23.1845328746]}},{"name":"Kilimanjaro Int'l","geoJSON":{"type":"Point","coordinates":[37.0651896068,-3.42444496]}},{"name":"Kaduna","geoJSON":{"type":"Point","coordinates":[7.3252534741,10.6946192862]}},{"name":"Kananga","geoJSON":{"type":"Point","coordinates":[22.4783332483,-5.9001665623]}},{"name":"Kumasi","geoJSON":{"type":"Point","coordinates":[-1.5925752658,6.7146063875]}},{"name":"Vi\u00f1a del Mar","geoJSON":{"type":"Point","coordinates":[-71.4806025355,-32.9483917651]}},{"name":"Kanpur","geoJSON":{"type":"Point","coordinates":[80.3675338772,26.4388334467]}},{"name":"Kona Int'l at Keahole","geoJSON":{"type":"Point","coordinates":[-156.0408894711,19.7370991399]}},{"name":"Kirkwall","geoJSON":{"type":"Point","coordinates":[-2.9013784952,58.9544288788]}},{"name":"Kota","geoJSON":{"type":"Point","coordinates":[75.8504977945,25.1634187167]}},{"name":"Konya","geoJSON":{"type":"Point","coordinates":[32.575673267,37.9839945532]}},{"name":"Blue Grass","geoJSON":{"type":"Point","coordinates":[-84.5982681919,38.0374273181]}},{"name":"Lihue","geoJSON":{"type":"Point","coordinates":[-159.3490842905,21.9781243162]}},{"name":"Clinton National","geoJSON":{"type":"Point","coordinates":[-92.2205881319,34.7284300415]}},{"name":"Los Mochis","geoJSON":{"type":"Point","coordinates":[-109.0826946453,25.6885088261]}},{"name":"Venustiano Carranza Int'l","geoJSON":{"type":"Point","coordinates":[-101.4649600318,26.9553927161]}},{"name":"Laredo Int'l","geoJSON":{"type":"Point","coordinates":[-99.4556603977,27.5436657176]}},{"name":"Sumburgh","geoJSON":{"type":"Point","coordinates":[-1.2880606884,59.8766899599]}},{"name":"Bassel Al-Assad Int'l","geoJSON":{"type":"Point","coordinates":[35.9442407097,35.4073114597]}},{"name":"London Luton","geoJSON":{"type":"Point","coordinates":[-0.3762272674,51.8802952571]}},{"name":"Svalbard Longyear","geoJSON":{"type":"Point","coordinates":[15.495229,78.246717]}},{"name":"Sangster Int'l","geoJSON":{"type":"Point","coordinates":[-77.9183907636,18.5011549298]}},{"name":"Mandalay Int'l","geoJSON":{"type":"Point","coordinates":[95.970653595,21.705549068]}},{"name":"Chicago Midway Int'l","geoJSON":{"type":"Point","coordinates":[-87.7421266886,41.7883492597]}},{"name":"Eloy Alfaro Int'l","geoJSON":{"type":"Point","coordinates":[-80.6833845996,-0.9495570021]}},{"name":"Montgomery Reg.","geoJSON":{"type":"Point","coordinates":[-86.3903074603,32.304587991]}},{"name":"Manchester-Boston Reg.","geoJSON":{"type":"Point","coordinates":[-71.4375239092,42.9279139946]}},{"name":"Maiduguri Int'l","geoJSON":{"type":"Point","coordinates":[13.0851390162,11.8534713189]}},{"name":"Mbuji Mayi","geoJSON":{"type":"Point","coordinates":[23.5721091989,-6.1248454135]}},{"name":"Minot Int'l","geoJSON":{"type":"Point","coordinates":[-101.2913855313,48.2556049213]}},{"name":"Missoula Int'l","geoJSON":{"type":"Point","coordinates":[-114.0836949237,46.9187604769]}},{"name":"Gen R.S. Taboada Int'l","geoJSON":{"type":"Point","coordinates":[-115.2478740478,32.6285643325]}},{"name":"Malpensa","geoJSON":{"type":"Point","coordinates":[8.712959535,45.627440514]}},{"name":"Norfolk Island","geoJSON":{"type":"Point","coordinates":[167.9433941162,-29.0351592555]}},{"name":"Nurnberg","geoJSON":{"type":"Point","coordinates":[11.0774179739,49.494505217]}},{"name":"Odessa Int'l","geoJSON":{"type":"Point","coordinates":[30.676830831,46.4406268759]}},{"name":"Gold Coast","geoJSON":{"type":"Point","coordinates":[153.5128762643,-28.166516854]}},{"name":"Oran Es Senia","geoJSON":{"type":"Point","coordinates":[-0.6067969644,35.6202747313]}},{"name":"Lok Nayak Jaiprakash","geoJSON":{"type":"Point","coordinates":[85.0909021315,25.5944434296]}},{"name":"Paysandu","geoJSON":{"type":"Point","coordinates":[-58.0685346825,-32.3614545293]}},{"name":"Paphos Int'l","geoJSON":{"type":"Point","coordinates":[32.4832322065,34.7134012817]}},{"name":"Sultan Mahmud Badaruddin II","geoJSON":{"type":"Point","coordinates":[104.6991283268,-2.8999934501]}},{"name":"Polokwane Int'l","geoJSON":{"type":"Point","coordinates":[29.4533403646,-23.8589862702]}},{"name":"Punta Cana","geoJSON":{"type":"Point","coordinates":[-68.3632351075,18.563039034]}},{"name":"Queretaro Int'l","geoJSON":{"type":"Point","coordinates":[-100.18735943,20.6224660713]}},{"name":"Rajkot","geoJSON":{"type":"Point","coordinates":[70.7799548312,22.3092816988]}},{"name":"Richmond Int'l","geoJSON":{"type":"Point","coordinates":[-77.3331196381,37.5082899751]}},{"name":"Shah Makhdum","geoJSON":{"type":"Point","coordinates":[88.6138045704,24.4448068623]}},{"name":"Greater Rochester Int'l","geoJSON":{"type":"Point","coordinates":[-77.6652445062,43.1275519826]}},{"name":"Rockhampton","geoJSON":{"type":"Point","coordinates":[150.478897,-23.378599]}},{"name":"Rostov-on-Don","geoJSON":{"type":"Point","coordinates":[39.8035144445,47.255111952]}},{"name":"Saratov","geoJSON":{"type":"Point","coordinates":[46.0350232499,51.5606456509]}},{"name":"Ram\u00f3n Villeda Morales Int'l","geoJSON":{"type":"Point","coordinates":[-87.9272365125,15.4558630525]}},{"name":"Santa Barbara Muni.","geoJSON":{"type":"Point","coordinates":[-119.8366015808,34.4257312979]}},{"name":"Deadhorse","geoJSON":{"type":"Point","coordinates":[-148.457855,70.19751]}},{"name":"Kangerlussuaq","geoJSON":{"type":"Point","coordinates":[-50.694199,67.018097]}},{"name":"Springfield Reg.","geoJSON":{"type":"Point","coordinates":[-93.3826379012,37.2421444903]}},{"name":"Shreveport Reg.","geoJSON":{"type":"Point","coordinates":[-93.828522223,32.4545798867]}},{"name":"Simferopol Int'l","geoJSON":{"type":"Point","coordinates":[33.9960529245,45.0202173978]}},{"name":"Sitka Rocky Gutierrez","geoJSON":{"type":"Point","coordinates":[-135.365692,57.05349]}},{"name":"Los Cabos Int'l","geoJSON":{"type":"Point","coordinates":[-109.7178583869,23.1626574484]}},{"name":"McNary Field","geoJSON":{"type":"Point","coordinates":[-123.0078714794,44.9105138452]}},{"name":"Plan de Guadalupe","geoJSON":{"type":"Point","coordinates":[-100.9322605486,25.547997642]}},{"name":"Shannon","geoJSON":{"type":"Point","coordinates":[-8.9224288556,52.6934537103]}},{"name":"Santo Pekoa Int'l","geoJSON":{"type":"Point","coordinates":[167.2208949194,-15.5055387371]}},{"name":"Achmad Yani","geoJSON":{"type":"Point","coordinates":[110.3785562557,-6.9787348496]}},{"name":"Srinagar","geoJSON":{"type":"Point","coordinates":[74.7826243672,33.9830909432]}},{"name":"Tapachula Int'l","geoJSON":{"type":"Point","coordinates":[-92.370003,14.7911281339]}},{"name":"Podgorica","geoJSON":{"type":"Point","coordinates":[19.2466868619,42.3679335195]}},{"name":"Tallahassee Reg.","geoJSON":{"type":"Point","coordinates":[-84.3449953985,30.3955576177]}},{"name":"Turin Int'l","geoJSON":{"type":"Point","coordinates":[7.6441623036,45.1916600735]}},{"name":"Taiyuan Wusu Int'l","geoJSON":{"type":"Point","coordinates":[112.6258915393,37.7545117792]}},{"name":"Narsarsuaq","geoJSON":{"type":"Point","coordinates":[-45.4164008923,61.1625968337]}},{"name":"U-Tapao","geoJSON":{"type":"Point","coordinates":[101.0002092905,12.6852930913]}},{"name":"Victoria Falls","geoJSON":{"type":"Point","coordinates":[25.8467677209,-18.0990155984]}},{"name":"Vijaywada","geoJSON":{"type":"Point","coordinates":[80.7973080001,16.5286427782]}},{"name":"Varanasi","geoJSON":{"type":"Point","coordinates":[82.8538741914,25.449907733]}},{"name":"Juan Gualberto Gomez","geoJSON":{"type":"Point","coordinates":[-81.4367103851,23.039542234]}},{"name":"Villahermosa","geoJSON":{"type":"Point","coordinates":[-92.8190675836,17.9930660113]}},{"name":"Brandon","geoJSON":{"type":"Point","coordinates":[-99.9458959002,49.904727941]}},{"name":"CFB Edmonton","geoJSON":{"type":"Point","coordinates":[-113.4788390545,53.6749156619]}},{"name":"Iqaluit","geoJSON":{"type":"Point","coordinates":[-68.5367292442,63.7511523538]}},{"name":"John C. Munro Hamilton Int'l","geoJSON":{"type":"Point","coordinates":[-79.926423096,43.1633605305]}},{"name":"Fort McMurray","geoJSON":{"type":"Point","coordinates":[-111.2238400466,56.6563171391]}},{"name":"Yantai","geoJSON":{"type":"Point","coordinates":[121.3720474178,37.4077044727]}},{"name":"Peace River","geoJSON":{"type":"Point","coordinates":[-117.4436632081,56.2319240367]}},{"name":"Greater Moncton Int'l","geoJSON":{"type":"Point","coordinates":[-64.6886696807,46.1162059639]}},{"name":"Sydney\/J.A. Douglas McCurdy","geoJSON":{"type":"Point","coordinates":[-60.0469372117,46.1673405891]}},{"name":"Resolute Bay","geoJSON":{"type":"Point","coordinates":[-94.9708023244,74.7181860988]}},{"name":"Fort Smith","geoJSON":{"type":"Point","coordinates":[-111.9610599382,60.0198749602]}},{"name":"Thompson","geoJSON":{"type":"Point","coordinates":[-97.860733,55.797482]}},{"name":"Timmins","geoJSON":{"type":"Point","coordinates":[-81.372047,48.566158]}},{"name":"Repulse Bay","geoJSON":{"type":"Point","coordinates":[-86.25,66.533302]}},{"name":"Kuujjuaq","geoJSON":{"type":"Point","coordinates":[-68.433342,58.101959]}},{"name":"Wabush","geoJSON":{"type":"Point","coordinates":[-66.873009,52.926071]}},{"name":"Edmonton City Centre","geoJSON":{"type":"Point","coordinates":[-113.5229736886,53.5709436583]}},{"name":"Fort St. John (N. Peace)","geoJSON":{"type":"Point","coordinates":[-120.736439,56.246035]}},{"name":"North Bay\/Jack Garland","geoJSON":{"type":"Point","coordinates":[-79.42491,46.358711]}},{"name":"Zaria","geoJSON":{"type":"Point","coordinates":[7.6872676431,11.1352958601]}},{"name":"Skopje","geoJSON":{"type":"Point","coordinates":[21.6281971858,41.9564546082]}},{"name":"Burnpur","geoJSON":{"type":"Point","coordinates":[86.9745467766,23.6312179108]}},{"name":"Hindon Air Force Station","geoJSON":{"type":"Point","coordinates":[77.3507888779,28.7077968601]}},{"name":"Sunchon","geoJSON":{"type":"Point","coordinates":[125.8908250575,39.4119659711]}},{"name":"\u0141\u00f3d\u017a W\u0142adys\u0142aw Reymont","geoJSON":{"type":"Point","coordinates":[19.4032148744,51.7272070452]}},{"name":"Alma Ata N.W.","geoJSON":{"type":"Point","coordinates":[76.8782640097,43.3554190838]}},{"name":"Jiamusi Dongjiao","geoJSON":{"type":"Point","coordinates":[130.4562047044,46.8430150223]}},{"name":"Mudanjiang Hailang","geoJSON":{"type":"Point","coordinates":[129.5801515322,44.53429363]}},{"name":"Severomorsk-3 (Murmansk N.E.)","geoJSON":{"type":"Point","coordinates":[33.2903527616,69.0168711827]}},{"name":"Mosul Int'l","geoJSON":{"type":"Point","coordinates":[43.145802,36.308601]}},{"name":"Rostov N.","geoJSON":{"type":"Point","coordinates":[39.6353996344,47.2774209203]}},{"name":"Rostov S.W.","geoJSON":{"type":"Point","coordinates":[39.7972215345,47.1158577256]}},{"name":"Oulu","geoJSON":{"type":"Point","coordinates":[25.3728374704,64.9287992359]}},{"name":"Bordeaux","geoJSON":{"type":"Point","coordinates":[-0.7017934491,44.8321108663]}},{"name":"Mandelieu","geoJSON":{"type":"Point","coordinates":[6.9543161203,43.546097987]}},{"name":"St Gatien","geoJSON":{"type":"Point","coordinates":[0.1586535282,49.3616609987]}},{"name":"Lille-Lesquin","geoJSON":{"type":"Point","coordinates":[3.105964998,50.571642393]}},{"name":"Toulouse-Blagnac","geoJSON":{"type":"Point","coordinates":[1.3735091855,43.6304625662]}},{"name":"Fukuoka","geoJSON":{"type":"Point","coordinates":[130.4441895419,33.5848164333]}},{"name":"Hiroshima-Nishi","geoJSON":{"type":"Point","coordinates":[132.4193727417,34.3713815629]}},{"name":"Nagoya","geoJSON":{"type":"Point","coordinates":[136.9196283841,35.2540532053]}},{"name":"Sendai","geoJSON":{"type":"Point","coordinates":[140.9302473814,38.1382075615]}},{"name":"Kirkenes Hoybuktmoen","geoJSON":{"type":"Point","coordinates":[29.89134895,69.7238318114]}},{"name":"Marechal Rondon Int'l","geoJSON":{"type":"Point","coordinates":[-56.1201774755,-15.6511470192]}},{"name":"Hercilio Luz Int'l","geoJSON":{"type":"Point","coordinates":[-48.544812205,-27.6646276942]}},{"name":"Joinville-Lauro C. de Loyola","geoJSON":{"type":"Point","coordinates":[-48.8016498166,-26.2242941375]}},{"name":"Presidente Castro Pinto Int'l","geoJSON":{"type":"Point","coordinates":[-34.9488925911,-7.146174624]}},{"name":"Augusto Severo Int'l","geoJSON":{"type":"Point","coordinates":[-35.2488410165,-5.8991205448]}},{"name":"Francisco Sa Carneiro","geoJSON":{"type":"Point","coordinates":[-8.6712724072,41.236870892]}},{"name":"Marechal Cunha Machado Int'l","geoJSON":{"type":"Point","coordinates":[-44.23623447,-2.5835092104]}},{"name":"Santos Air Force Base","geoJSON":{"type":"Point","coordinates":[-46.3052704931,-23.9237590411]}},{"name":"Teresina-Senador Petronio Portella","geoJSON":{"type":"Point","coordinates":[-42.8212402318,-5.0634629917]}},{"name":"Viracopos-Campinas Int'l","geoJSON":{"type":"Point","coordinates":[-47.1410791911,-23.0096239085]}},{"name":"Eurico de Aguiar Salles","geoJSON":{"type":"Point","coordinates":[-40.288536876,-20.2574162759]}},{"name":"Alicante","geoJSON":{"type":"Point","coordinates":[-0.5572304404,38.2866408994]}},{"name":"Almeria","geoJSON":{"type":"Point","coordinates":[-2.3716014406,36.847767271]}},{"name":"Valencia","geoJSON":{"type":"Point","coordinates":[-0.4734749308,39.4914597884]}},{"name":"Kiruna_Airport","geoJSON":{"type":"Point","coordinates":[20.3351522955,67.8256066056]}},{"name":"Norrk\u00f6ping Airport","geoJSON":{"type":"Point","coordinates":[16.2339407696,58.5833805018]}},{"name":"Husein Sastranegara Int'l","geoJSON":{"type":"Point","coordinates":[107.5756118522,-6.9004240835]}},{"name":"Rosario \u2013 Islas Malvinas Int'l","geoJSON":{"type":"Point","coordinates":[-60.7800787217,-32.9162269744]}},{"name":"Maceio\/Zumbi dos Palmares Int'l","geoJSON":{"type":"Point","coordinates":[-35.7924951216,-9.5149411854]}},{"name":"Sharm el-Sheikh Int'l","geoJSON":{"type":"Point","coordinates":[34.3901189267,27.9804044199]}},{"name":"Taba Int'l","geoJSON":{"type":"Point","coordinates":[34.7758378997,29.5944990568]}},{"name":"Agra","geoJSON":{"type":"Point","coordinates":[77.9609091765,27.1577277347]}},{"name":"Vadodara","geoJSON":{"type":"Point","coordinates":[73.2262889533,22.3361640021]}},{"name":"Shahid Ashrafi Esfahani","geoJSON":{"type":"Point","coordinates":[47.1565835166,34.3464167739]}},{"name":"Benina Int'l","geoJSON":{"type":"Point","coordinates":[20.2680398019,32.0872774607]}},{"name":"King Abdulaziz AB","geoJSON":{"type":"Point","coordinates":[50.1477245728,26.2703680855]}},{"name":"Nueva Hesp\u00e9rides Int'l","geoJSON":{"type":"Point","coordinates":[-57.9840821176,-31.4373883388]}},{"name":"Baikonur Cosmodrome","geoJSON":{"type":"Point","coordinates":[63.3073544239,45.9635739403]}},{"name":"Kennedy Space Center","geoJSON":{"type":"Point","coordinates":[-80.6369680912,28.5163704772]}},{"name":"Centre Spatial Guyanais","geoJSON":{"type":"Point","coordinates":[-52.7684296893,5.2394100126]}},{"name":"Queen Beatrix Int'l","geoJSON":{"type":"Point","coordinates":[-70.0076228563,12.503464363]}},{"name":"Djibouti-Ambouli Int'l","geoJSON":{"type":"Point","coordinates":[43.149712786,11.552101823]}},{"name":"Diego Aracena Int'l","geoJSON":{"type":"Point","coordinates":[-70.1786353955,-20.5478400878]}},{"name":"Sabiha G\u00f6k\u00e7en Havaalani","geoJSON":{"type":"Point","coordinates":[29.3095991424,40.9043003554]}},{"name":"Kosrae Island","geoJSON":{"type":"Point","coordinates":[162.9570412251,5.3520098572]}},{"name":"Funafuti Int'l","geoJSON":{"type":"Point","coordinates":[179.195442023,-8.5248541506]}},{"name":"Dr. Babasaheb Ambedkar Int'l","geoJSON":{"type":"Point","coordinates":[79.0537976422,21.089931763]}},{"name":"Phuket Int'l","geoJSON":{"type":"Point","coordinates":[98.3060384901,8.1076847595]}},{"name":"Nadi Int'l","geoJSON":{"type":"Point","coordinates":[177.4511511981,-17.752912948]}},{"name":"Lic. Jes\u00fas Ter\u00e1n Peredo Int'l","geoJSON":{"type":"Point","coordinates":[-102.3140937401,21.7013390329]}},{"name":"Albenga","geoJSON":{"type":"Point","coordinates":[8.1231453544,44.0458773598]}},{"name":"Queen Alia Int'l","geoJSON":{"type":"Point","coordinates":[35.9897071622,31.72266216]}},{"name":"Chacalluta Int'l","geoJSON":{"type":"Point","coordinates":[-70.3357301411,-18.349206164]}},{"name":"Atar Int'l","geoJSON":{"type":"Point","coordinates":[-13.0511704323,20.4982706102]}},{"name":"Ernesto Cortissoz Int'l","geoJSON":{"type":"Point","coordinates":[-74.7765559783,10.8866775959]}},{"name":"Teniente Luis Candelaria Int'l","geoJSON":{"type":"Point","coordinates":[-71.161430087,-41.1459976958]}},{"name":"Bouak\u00e9","geoJSON":{"type":"Point","coordinates":[-5.0689422228,7.7361049556]}},{"name":"Philip S. W. Goldson Int'l","geoJSON":{"type":"Point","coordinates":[-88.3082064033,17.5360686576]}},{"name":"Corpus Christi Int'l","geoJSON":{"type":"Point","coordinates":[-97.502267871,27.7744560701]}},{"name":"Hato Int'l","geoJSON":{"type":"Point","coordinates":[-68.9568788073,12.1848346052]}},{"name":"Velazco Astete Int'l","geoJSON":{"type":"Point","coordinates":[-71.943664145,-13.5382186993]}},{"name":"Julius Nyerere Int'l","geoJSON":{"type":"Point","coordinates":[39.2074715039,-6.8667200425]}},{"name":"Detroit City","geoJSON":{"type":"Point","coordinates":[-83.0039681418,42.4090938432]}},{"name":"Presidente Nicolau Lobato Int'l","geoJSON":{"type":"Point","coordinates":[125.5248542092,-8.5493115741]}},{"name":"Moscow Domodedovo Int'l","geoJSON":{"type":"Point","coordinates":[37.9002531289,55.4141528223]}},{"name":"Dunedin Int'l","geoJSON":{"type":"Point","coordinates":[170.200027,-45.923431]}},{"name":"Dzaoudzi Pamanzi Int'l","geoJSON":{"type":"Point","coordinates":[45.2817864198,-12.8049474382]}},{"name":"El Paso Int'l","geoJSON":{"type":"Point","coordinates":[-106.3957146794,31.7990860273]}},{"name":"Zvartnots Int'l","geoJSON":{"type":"Point","coordinates":[44.4000630537,40.1523679452]}},{"name":"Fort Worth Meacham Field","geoJSON":{"type":"Point","coordinates":[-97.3551348562,32.8207529048]}},{"name":"JAGS McCartney Int'l","geoJSON":{"type":"Point","coordinates":[-71.1461337449,21.4421237439]}},{"name":"Scholes Int'l","geoJSON":{"type":"Point","coordinates":[-94.8554013876,29.2671239212]}},{"name":"Goma Int'l","geoJSON":{"type":"Point","coordinates":[29.2400534952,-1.65831795]}},{"name":"Garoua Int'l","geoJSON":{"type":"Point","coordinates":[13.3724309378,9.3306886768]}},{"name":"Antonio B. Won Pat Int'l","geoJSON":{"type":"Point","coordinates":[144.8058503571,13.4926462359]}},{"name":"Gary\/Chicago Int'l","geoJSON":{"type":"Point","coordinates":[-87.4083596247,41.6177930015]}},{"name":"Prince Said Ibrahim Int'l","geoJSON":{"type":"Point","coordinates":[43.274561218,-11.5366393829]}},{"name":"Hobart Int'l","geoJSON":{"type":"Point","coordinates":[147.5059961904,-42.8376083695]}},{"name":"Honiara Int'l","geoJSON":{"type":"Point","coordinates":[160.0458551299,-9.427575664]}},{"name":"Kiev Zhuliany Int'l","geoJSON":{"type":"Point","coordinates":[30.4451305182,50.412808166]}},{"name":"Irkutsk S.E.","geoJSON":{"type":"Point","coordinates":[104.355859748,52.2728893882]}},{"name":"Indianapolis Int'l","geoJSON":{"type":"Point","coordinates":[-86.2734003651,39.7302043704]}},{"name":"Nauru Int'l","geoJSON":{"type":"Point","coordinates":[166.9161396588,-0.5450372269]}},{"name":"Mataveri Int'l","geoJSON":{"type":"Point","coordinates":[-109.43006441,-27.1587738389]}},{"name":"Gob. Horacio Guzman Int'l","geoJSON":{"type":"Point","coordinates":[-65.0937665459,-24.3861010776]}},{"name":"Nanchang Changbei Int'l","geoJSON":{"type":"Point","coordinates":[115.9119799186,28.8624891201]}},{"name":"Kunming Wujiaba Int'l","geoJSON":{"type":"Point","coordinates":[102.7421175788,24.9999961101]}},{"name":"Leeds Bradford","geoJSON":{"type":"Point","coordinates":[-1.6598310673,53.8690819474]}},{"name":"Libreville Leon M'ba Int'l","geoJSON":{"type":"Point","coordinates":[9.4102233782,0.4571392295]}},{"name":"Lom\u00e9 Tokoin","geoJSON":{"type":"Point","coordinates":[1.2509320564,6.1668736272]}},{"name":"Lviv Danylo Halytskyi Int'l","geoJSON":{"type":"Point","coordinates":[23.9461269599,49.817850605]}},{"name":"Marshall Islands Int'l","geoJSON":{"type":"Point","coordinates":[171.2819193706,7.0681184856]}},{"name":"Macau Int'l","geoJSON":{"type":"Point","coordinates":[113.5745129486,22.157657253]}},{"name":"Aden Adde Int'l","geoJSON":{"type":"Point","coordinates":[45.3036374186,2.0163531121]}},{"name":"Maputo Int'l","geoJSON":{"type":"Point","coordinates":[32.5741915195,-25.9242767118]}},{"name":"Sir Seewoosagur Ramgoolam Int'l","geoJSON":{"type":"Point","coordinates":[57.6769860077,-20.4317567793]}},{"name":"Naples Int'l","geoJSON":{"type":"Point","coordinates":[14.282844434,40.8780728844]}},{"name":"Nouadhibou Int'l","geoJSON":{"type":"Point","coordinates":[-17.0334398692,20.9290523064]}},{"name":"Ningbo Lishe Int'l","geoJSON":{"type":"Point","coordinates":[121.4618193885,29.8208231907]}},{"name":"Nouakchott Int'l","geoJSON":{"type":"Point","coordinates":[-15.9519259252,18.0979231718]}},{"name":"La Tontouta Int'l","geoJSON":{"type":"Point","coordinates":[166.2172321187,-22.0136386249]}},{"name":"Oakland Int'l","geoJSON":{"type":"Point","coordinates":[-122.2132612579,37.7123036952]}},{"name":"Ontario Int'l","geoJSON":{"type":"Point","coordinates":[-117.5923276517,34.0601911021]}},{"name":"Cork","geoJSON":{"type":"Point","coordinates":[-8.4901419998,51.848540542]}},{"name":"Minangkabau Int'l","geoJSON":{"type":"Point","coordinates":[100.2854558518,-0.786045714]}},{"name":"Jo\u00e3o Paulo II","geoJSON":{"type":"Point","coordinates":[-25.6969882199,37.7433316473]}},{"name":"Bacha Khan Int'l","geoJSON":{"type":"Point","coordinates":[71.5188149913,33.991402789]}},{"name":"Glasgow Prestwick","geoJSON":{"type":"Point","coordinates":[-4.610971639,55.5088918105]}},{"name":"Ponta Por\u00e3 Int'l","geoJSON":{"type":"Point","coordinates":[-55.7060793749,-22.5517865609]}},{"name":"Palmerston N. Int'l","geoJSON":{"type":"Point","coordinates":[175.621283282,-40.3233178852]}},{"name":"Pohnpei Int'l","geoJSON":{"type":"Point","coordinates":[158.203304491,6.9813067651]}},{"name":"Tahiti Faa'a Int'l","geoJSON":{"type":"Point","coordinates":[-149.6097579324,-17.559457766]}},{"name":"Pisa Galileo Galilei Int'l","geoJSON":{"type":"Point","coordinates":[10.4001343718,43.6983224158]}},{"name":"Port Sudan","geoJSON":{"type":"Point","coordinates":[37.2160657575,19.5760636532]}},{"name":"Praia Int'l","geoJSON":{"type":"Point","coordinates":[-23.4862019884,14.9449889353]}},{"name":"Marrakech-Menara","geoJSON":{"type":"Point","coordinates":[-8.0246053591,31.6022946598]}},{"name":"Rarotonga Int'l","geoJSON":{"type":"Point","coordinates":[-159.7981563084,-21.2009821725]}},{"name":"Siem Reap Int'l","geoJSON":{"type":"Point","coordinates":[103.8157805281,13.4087969694]}},{"name":"Hermes Quijada Int'l","geoJSON":{"type":"Point","coordinates":[-67.7530268463,-53.7814746058]}},{"name":"Piloto Civil Norberto Fernandez Int'l","geoJSON":{"type":"Point","coordinates":[-69.3064711777,-51.6116980855]}},{"name":"Reno-Tahoe Int'l","geoJSON":{"type":"Point","coordinates":[-119.7752833081,39.5058499015]}},{"name":"Roman Tmetuchl Int'l","geoJSON":{"type":"Point","coordinates":[134.5329534662,7.3644955361]}},{"name":"Amilcar Cabral Int'l","geoJSON":{"type":"Point","coordinates":[-22.944057408,16.7347932693]}},{"name":"Sarajevo","geoJSON":{"type":"Point","coordinates":[18.3366185457,43.8258872247]}},{"name":"Robert L. Bradshaw Int'l","geoJSON":{"type":"Point","coordinates":[-62.7142125047,17.3111258404]}},{"name":"Mart\u00edn Miguel de G\u00fcemes Int","geoJSON":{"type":"Point","coordinates":[-65.4784760438,-24.8443742713]}},{"name":"Saipan Int'l","geoJSON":{"type":"Point","coordinates":[145.7236946586,15.1215167198]}},{"name":"Juana Azurduy de Padilla Int'l","geoJSON":{"type":"Point","coordinates":[-65.2928631388,-19.0139157925]}},{"name":"Princess Juliana Int'l","geoJSON":{"type":"Point","coordinates":[-63.1122760859,18.0422440215]}},{"name":"Ta'izz Int'l","geoJSON":{"type":"Point","coordinates":[44.1347827311,13.6854970026]}},{"name":"Qingdao Liuting Int'l","geoJSON":{"type":"Point","coordinates":[120.3806859491,36.2677578081]}},{"name":"Chuuk Int'l","geoJSON":{"type":"Point","coordinates":[151.8420460374,7.4576178029]}},{"name":"Tangier Ibn Battouta","geoJSON":{"type":"Point","coordinates":[-5.9128808766,35.7257656409]}},{"name":"Bonriki Int'l","geoJSON":{"type":"Point","coordinates":[173.1459907953,1.3806686975]}},{"name":"Astana Int'l","geoJSON":{"type":"Point","coordinates":[71.46094414,51.0269352908]}},{"name":"Tianjin Binhai Int'l","geoJSON":{"type":"Point","coordinates":[117.3527231599,39.1294609909]}},{"name":"Townsville","geoJSON":{"type":"Point","coordinates":[146.7706789048,-19.2561814376]}},{"name":"Teniente Gen. Benjamin Matienzo Int'l","geoJSON":{"type":"Point","coordinates":[-65.1081246236,-26.8357310051]}},{"name":"Aeroport Tunis","geoJSON":{"type":"Point","coordinates":[10.2176992447,36.8474482177]}},{"name":"Tucson Int'l","geoJSON":{"type":"Point","coordinates":[-110.9377132321,32.1203523442]}},{"name":"Chinggis Khaan Int'l","geoJSON":{"type":"Point","coordinates":[106.7628739949,47.8525260967]}},{"name":"\u00dcr\u00fcmqi Diwopu Int'l","geoJSON":{"type":"Point","coordinates":[87.4671298488,43.8983382194]}},{"name":"Bauerfield Int'l","geoJSON":{"type":"Point","coordinates":[168.3196227397,-17.7016990682]}},{"name":"Wewak Int'l","geoJSON":{"type":"Point","coordinates":[143.6691022997,-3.5802268944]}},{"name":"Ch\u00e2lons Vatry","geoJSON":{"type":"Point","coordinates":[4.1911198257,48.7803946139]}},{"name":"Xiamen Gaoqi Int'l","geoJSON":{"type":"Point","coordinates":[118.1269688467,24.5371925706]}},{"name":"Yap Int'l","geoJSON":{"type":"Point","coordinates":[138.0864302836,9.4979173336]}},{"name":"Playa de Oro Int'l","geoJSON":{"type":"Point","coordinates":[-104.5600952001,19.1480860286]}},{"name":"Cayenne \u2013 Rochambeau","geoJSON":{"type":"Point","coordinates":[-52.3638068572,4.8212671431]}},{"name":"Irkutsk N.W.","geoJSON":{"type":"Point","coordinates":[104.1973592845,52.36164767]}},{"name":"Shijiazhuang Zhengding Int'l","geoJSON":{"type":"Point","coordinates":[114.6922665989,38.2781409131]}},{"name":"Heydar Aliyev Int'l","geoJSON":{"type":"Point","coordinates":[50.0498394867,40.4627468839]}},{"name":"Lakatamia Airbase","geoJSON":{"type":"Point","coordinates":[33.3222013349,35.1063448067]}},{"name":"Cabo Frio Int'l","geoJSON":{"type":"Point","coordinates":[-42.079251752,-22.9256317091]}},{"name":"Helsinki-Malmi","geoJSON":{"type":"Point","coordinates":[25.0455353698,60.24937785]}},{"name":"Luxembourg-Findel","geoJSON":{"type":"Point","coordinates":[6.2164212173,49.6343040925]}},{"name":"Venice Marco Polo","geoJSON":{"type":"Point","coordinates":[12.3410673004,45.5048477588]}},{"name":"Yangyang Int'l","geoJSON":{"type":"Point","coordinates":[128.6629886688,38.0587824163]}},{"name":"Tabatinga Int'l","geoJSON":{"type":"Point","coordinates":[-69.9394739339,-4.2503246949]}},{"name":"Boa Vista Int'l","geoJSON":{"type":"Point","coordinates":[-60.6922206339,2.8411953412]}},{"name":"Gran Canaria","geoJSON":{"type":"Point","coordinates":[-15.3899245158,27.9368899717]}},{"name":"Com. Armando Tola Int'l","geoJSON":{"type":"Point","coordinates":[-72.0538569101,-50.283900869]}},{"name":"Stockholm-Skavsta","geoJSON":{"type":"Point","coordinates":[16.9216055584,58.7851041303]}},{"name":"Polonia Int'l","geoJSON":{"type":"Point","coordinates":[98.6761925715,3.5665917999]}},{"name":"Bangui M'Poko Int'l","geoJSON":{"type":"Point","coordinates":[18.5241236302,4.398851537]}},{"name":"Hangzhou Xiaoshan Int'l","geoJSON":{"type":"Point","coordinates":[120.4320973763,30.235186279]}},{"name":"Cassidy Int'l","geoJSON":{"type":"Point","coordinates":[-157.3497778934,1.9861611979]}},{"name":"\u0160iauliai Int'l","geoJSON":{"type":"Point","coordinates":[23.3831885739,55.903769454]}},{"name":"Niue Int'l","geoJSON":{"type":"Point","coordinates":[-169.9261297742,-19.0767129355]}},{"name":"Guaran\u00ed Int'l","geoJSON":{"type":"Point","coordinates":[-54.8393995296,-25.4568570716]}},{"name":"Rodr\u00edguez Ball\u00f3n Int'l","geoJSON":{"type":"Point","coordinates":[-71.5679335385,-16.3445520654]}},{"name":"Vladivostok Int'l","geoJSON":{"type":"Point","coordinates":[132.1398417207,43.3776492534]}},{"name":"Pristina","geoJSON":{"type":"Point","coordinates":[21.0302690125,42.5850331153]}},{"name":"Deurne","geoJSON":{"type":"Point","coordinates":[4.450922774,51.1891285064]}},{"name":"Gen. M\u00e1rquez de Le\u00f3n Int'l","geoJSON":{"type":"Point","coordinates":[-110.3671978598,24.0760903522]}},{"name":"Harbin Taiping","geoJSON":{"type":"Point","coordinates":[126.2369830309,45.6206011723]}},{"name":"Trivandrum Int'l","geoJSON":{"type":"Point","coordinates":[76.9189025613,8.4765099389]}},{"name":"Adnan Menderes","geoJSON":{"type":"Point","coordinates":[27.1492975953,38.2912347645]}},{"name":"Nanjing Lukou Int'l","geoJSON":{"type":"Point","coordinates":[118.8661021469,31.7353249296]}},{"name":"Freeport Int'l","geoJSON":{"type":"Point","coordinates":[-78.7039343114,26.5482467472]}},{"name":"Tripoli Int'l","geoJSON":{"type":"Point","coordinates":[13.1442589811,32.6691695505]}},{"name":"Gander Int'l","geoJSON":{"type":"Point","coordinates":[-54.5755719094,48.9465980061]}},{"name":"Doha Int'l","geoJSON":{"type":"Point","coordinates":[51.5585487877,25.2682461311]}},{"name":"Albuquerque Int'l","geoJSON":{"type":"Point","coordinates":[-106.6166851616,35.0491578018]}},{"name":"V.C. Bird Int'l","geoJSON":{"type":"Point","coordinates":[-61.7923676698,17.1403599372]}},{"name":"Faleolo","geoJSON":{"type":"Point","coordinates":[-171.9973222183,-13.8325013324]}},{"name":"Asyut","geoJSON":{"type":"Point","coordinates":[31.0162490438,27.0508158407]}},{"name":"Bahrain Int'l","geoJSON":{"type":"Point","coordinates":[50.6260028758,26.2696971499]}},{"name":"Bradley Int'l","geoJSON":{"type":"Point","coordinates":[-72.6853947433,41.9303160058]}},{"name":"Grantley Adams Int'l","geoJSON":{"type":"Point","coordinates":[-59.4874188953,13.0796611046]}},{"name":"Yundum Int'l","geoJSON":{"type":"Point","coordinates":[-16.6523132698,13.3438604789]}},{"name":"Bujumbura Int'l","geoJSON":{"type":"Point","coordinates":[29.320984017,-3.3220443491]}},{"name":"Chileka Int'l","geoJSON":{"type":"Point","coordinates":[34.9719441838,-15.6813844793]}},{"name":"Broome Int'l","geoJSON":{"type":"Point","coordinates":[122.233850515,-17.9525761293]}},{"name":"Bandar Abbass Int'l","geoJSON":{"type":"Point","coordinates":[56.3688864564,27.2103258455]}},{"name":"Basrah Int'l","geoJSON":{"type":"Point","coordinates":[47.6683766634,30.5527990161]}},{"name":"Ciudad Juarez Int'l","geoJSON":{"type":"Point","coordinates":[-106.4358466311,31.6357566202]}},{"name":"Katunayake Int'l","geoJSON":{"type":"Point","coordinates":[79.8852573422,7.1780771054]}},{"name":"Cairns Int'l","geoJSON":{"type":"Point","coordinates":[145.7535848444,-16.8767421554]}},{"name":"Chiang Mai Int'l","geoJSON":{"type":"Point","coordinates":[98.9681181242,18.768847392]}},{"name":"City of Colorado Springs","geoJSON":{"type":"Point","coordinates":[-104.7008802741,38.7974248779]}},{"name":"Ign. Alberto Ongay Int'l","geoJSON":{"type":"Point","coordinates":[-90.5036283734,19.8142247992]}},{"name":"Changsha Huanghua Int'l","geoJSON":{"type":"Point","coordinates":[113.2140542033,28.1899218619]}},{"name":"Greater Cincinnati Int'l","geoJSON":{"type":"Point","coordinates":[-84.6561699153,39.0554189048]}},{"name":"Da Nang","geoJSON":{"type":"Point","coordinates":[108.2027062579,16.0531441452]}},{"name":"Dallas Love Field","geoJSON":{"type":"Point","coordinates":[-96.849863771,32.8444253733]}},{"name":"Damascus Int'l","geoJSON":{"type":"Point","coordinates":[36.5128954718,33.4114366703]}},{"name":"Enrique Malek Int'l","geoJSON":{"type":"Point","coordinates":[-82.4317583369,8.3912610612]}},{"name":"Aba Tenna D. Yilma Int'l","geoJSON":{"type":"Point","coordinates":[41.8577567223,9.6126778475]}},{"name":"Bali Int'l","geoJSON":{"type":"Point","coordinates":[115.1623229611,-8.744757316]}},{"name":"Des Moines Int'l","geoJSON":{"type":"Point","coordinates":[-93.6484612564,41.5327904242]}},{"name":"Entebbe Int'l","geoJSON":{"type":"Point","coordinates":[32.4427573135,0.0449409494]}},{"name":"Kisangani Bangoka Int'l","geoJSON":{"type":"Point","coordinates":[25.3302714896,0.4922251369]}},{"name":"Fuzhou Changle Int'l","geoJSON":{"type":"Point","coordinates":[119.668043821,25.9318233148]}},{"name":"Lokpriya G. Bordoloi Int'l","geoJSON":{"type":"Point","coordinates":[91.5882290582,26.1052475924]}},{"name":"Gdansk Lech Walesa","geoJSON":{"type":"Point","coordinates":[18.4684422166,54.3807025353]}},{"name":"Point Salines Int'l","geoJSON":{"type":"Point","coordinates":[-61.7858529909,12.0072683054]}},{"name":"Nizhny Novgorod Int'l","geoJSON":{"type":"Point","coordinates":[43.7896337063,56.2185525911]}},{"name":"Gen. Jos\u00e9 M. Y\u00e1\u00f1ez Int'l","geoJSON":{"type":"Point","coordinates":[-110.9216512704,27.9694553963]}},{"name":"Hohhot Baita Int'l","geoJSON":{"type":"Point","coordinates":[111.8146818216,40.8540600907]}},{"name":"Helena Reg.","geoJSON":{"type":"Point","coordinates":[-111.989896896,46.6102043529]}},{"name":"Gen. Ignacio P. Garcia Int'l","geoJSON":{"type":"Point","coordinates":[-111.0519017118,29.0900772523]}},{"name":"Dulles Int'l","geoJSON":{"type":"Point","coordinates":[-77.4477925769,38.952774038]}},{"name":"Hilo Int'l","geoJSON":{"type":"Point","coordinates":[-155.0396297334,19.7147976869]}},{"name":"Jackson Int'l","geoJSON":{"type":"Point","coordinates":[-90.0750986277,32.3100600274]}},{"name":"Jacksonville Int'l","geoJSON":{"type":"Point","coordinates":[-81.6835767278,30.4913527309]}},{"name":"Kuching Int'l","geoJSON":{"type":"Point","coordinates":[110.3418370543,1.4872079378]}},{"name":"Kigali Int'l","geoJSON":{"type":"Point","coordinates":[30.1348768188,-1.9636544366]}},{"name":"Krak\u00f3w-Balice","geoJSON":{"type":"Point","coordinates":[19.8009772845,50.0722630648]}},{"name":"Kurumoch","geoJSON":{"type":"Point","coordinates":[50.147265521,53.5083848191]}},{"name":"Guilin Liangjiang Int'l","geoJSON":{"type":"Point","coordinates":[110.0468934978,25.2176055252]}},{"name":"Laoag Int'l","geoJSON":{"type":"Point","coordinates":[120.5338761961,18.1824180866]}},{"name":"LaGuardia","geoJSON":{"type":"Point","coordinates":[-73.8719858205,40.7745539399]}},{"name":"London Gatwick","geoJSON":{"type":"Point","coordinates":[-0.1629616391,51.1557567519]}},{"name":"Ljubljana","geoJSON":{"type":"Point","coordinates":[14.4548126283,46.2305445554]}},{"name":"Amausi Int'l","geoJSON":{"type":"Point","coordinates":[80.8841719732,26.7639328701]}},{"name":"La Plata","geoJSON":{"type":"Point","coordinates":[-57.8953820637,-34.9655441559]}},{"name":"Gen. Sevando Canales","geoJSON":{"type":"Point","coordinates":[-97.5308217121,25.7708412641]}},{"name":"Manchester Int'l","geoJSON":{"type":"Point","coordinates":[-2.2733715907,53.3624896067]}},{"name":"Kansas City Int'l","geoJSON":{"type":"Point","coordinates":[-94.7159148579,39.2978958264]}},{"name":"Seeb Int'l","geoJSON":{"type":"Point","coordinates":[58.2904804753,23.5885704176]}},{"name":"Habib Bourguiba Int'l","geoJSON":{"type":"Point","coordinates":[10.7533681851,35.7607104422]}},{"name":"Marseille Provence Airport","geoJSON":{"type":"Point","coordinates":[5.2213791772,43.4410600016]}},{"name":"Quetzalcoatl Int'l","geoJSON":{"type":"Point","coordinates":[-99.568008193,27.4496896508]}},{"name":"Nanning Wuwu Int'l","geoJSON":{"type":"Point","coordinates":[108.1680122733,22.6120370542]}},{"name":"Xoxocotl\u00e1n Int'l","geoJSON":{"type":"Point","coordinates":[-96.7217959385,17.000559257]}},{"name":"Kahului","geoJSON":{"type":"Point","coordinates":[-156.4374295814,20.8932885151]}},{"name":"Will Rogers","geoJSON":{"type":"Point","coordinates":[-97.5961177542,35.3952774912]}},{"name":"Norfolk Int'l","geoJSON":{"type":"Point","coordinates":[-76.2044231712,36.8982394674]}},{"name":"Palm Beach Int'l","geoJSON":{"type":"Point","coordinates":[-80.0901893383,26.6884416664]}},{"name":"Pengel Int'l","geoJSON":{"type":"Point","coordinates":[-55.1999113893,5.455999678]}},{"name":"Bolshesavino","geoJSON":{"type":"Point","coordinates":[56.019560282,57.9197711232]}},{"name":"Penang Int'l","geoJSON":{"type":"Point","coordinates":[100.265786381,5.2926562779]}},{"name":"Port Harcourt Int'l","geoJSON":{"type":"Point","coordinates":[6.9498974272,5.0070034767]}},{"name":"Port Hedland Int'l","geoJSON":{"type":"Point","coordinates":[118.6317978156,-20.3781272961]}},{"name":"Pierre Regional","geoJSON":{"type":"Point","coordinates":[-100.2926419817,44.3801534669]}},{"name":"Greater Pittsburgh Int'l","geoJSON":{"type":"Point","coordinates":[-80.2561290572,40.4960518915]}},{"name":"Pago Pago Int'l","geoJSON":{"type":"Point","coordinates":[-170.7133070537,-14.329064185]}},{"name":"Birmingham Int'l","geoJSON":{"type":"Point","coordinates":[-1.7337317043,52.4529085543]}},{"name":"Roberts Int'l","geoJSON":{"type":"Point","coordinates":[-10.3530851868,6.2418345655]}},{"name":"Raipur","geoJSON":{"type":"Point","coordinates":[81.7403775915,21.1859868561]}},{"name":"El Salvador Int'l","geoJSON":{"type":"Point","coordinates":[-89.0572035693,13.4447481229]}},{"name":"San Diego Int'l","geoJSON":{"type":"Point","coordinates":[-117.1975110257,32.732264557]}},{"name":"San Antonio Int'l","geoJSON":{"type":"Point","coordinates":[-98.4719699992,29.5266203391]}},{"name":"Savannah Int'l","geoJSON":{"type":"Point","coordinates":[-81.2099647751,32.1356415523]}},{"name":"Antonio Maceo","geoJSON":{"type":"Point","coordinates":[-75.839887764,19.9724288718]}},{"name":"Ponciano Arriaga Int'l","geoJSON":{"type":"Point","coordinates":[-100.9364778163,22.2557130496]}},{"name":"Sacramento Int'l","geoJSON":{"type":"Point","coordinates":[-121.5878948777,38.6927238926]}},{"name":"Cibao Int'l","geoJSON":{"type":"Point","coordinates":[-70.6941783224,19.4659219153]}},{"name":"Koltsovo","geoJSON":{"type":"Point","coordinates":[60.8058033432,56.732245612]}},{"name":"Syracuse Hancock Int'l","geoJSON":{"type":"Point","coordinates":[-76.1130789991,43.1317844944]}},{"name":"Tabriz","geoJSON":{"type":"Point","coordinates":[46.2447133736,38.1311107688]}},{"name":"Torreon Int'l","geoJSON":{"type":"Point","coordinates":[-103.3987878286,25.56321644]}},{"name":"Tulsa Int'l","geoJSON":{"type":"Point","coordinates":[-95.8898822715,36.1901275652]}},{"name":"Mcghee Tyson","geoJSON":{"type":"Point","coordinates":[-83.9899378328,35.8057448027]}},{"name":"Ufa Int'l","geoJSON":{"type":"Point","coordinates":[55.8840773412,54.5651323579]}},{"name":"Hewanorra Int'l","geoJSON":{"type":"Point","coordinates":[-60.9499737723,13.736523805]}},{"name":"Windhoek Hosea Kutako Int'l","geoJSON":{"type":"Point","coordinates":[17.4632259028,-22.4869531202]}},{"name":"Sault Ste Marie","geoJSON":{"type":"Point","coordinates":[-84.500609,46.4854175102]}},{"name":"Dawson Cr.","geoJSON":{"type":"Point","coordinates":[-120.1855956191,55.7394117075]}},{"name":"Edmonton Int'l","geoJSON":{"type":"Point","coordinates":[-113.5844925644,53.3072001619]}},{"name":"Halifax Int'l","geoJSON":{"type":"Point","coordinates":[-63.5149652502,44.8865454501]}},{"name":"Kamloops","geoJSON":{"type":"Point","coordinates":[-120.441734764,50.7051955185]}},{"name":"Sudbury","geoJSON":{"type":"Point","coordinates":[-80.7957747817,46.6227508205]}},{"name":"Saint John","geoJSON":{"type":"Point","coordinates":[-65.8905573681,45.3292305955]}},{"name":"Prince George","geoJSON":{"type":"Point","coordinates":[-122.674014744,53.8842485751]}},{"name":"Victoria Int'l","geoJSON":{"type":"Point","coordinates":[-123.4306245395,48.6405294822]}},{"name":"Zamboanga Int'l","geoJSON":{"type":"Point","coordinates":[122.0624323216,6.9197577481]}},{"name":"Lanzhou Zhongchuan","geoJSON":{"type":"Point","coordinates":[103.615415363,36.5078842461]}},{"name":"Albany Int'l","geoJSON":{"type":"Point","coordinates":[-73.8093518843,42.7456619802]}},{"name":"General Mitchell Int'l","geoJSON":{"type":"Point","coordinates":[-87.9021056251,42.947919873]}},{"name":"Wang-Chia Tun Airbase","geoJSON":{"type":"Point","coordinates":[114.2469473762,30.6017141197]}},{"name":"Sanya Phoenix Int'l","geoJSON":{"type":"Point","coordinates":[109.4082394911,18.3090959909]}},{"name":"Lhasa Gonggar","geoJSON":{"type":"Point","coordinates":[90.9005610194,29.2936936123]}},{"name":"Hotan","geoJSON":{"type":"Point","coordinates":[79.8723005212,37.040036351]}},{"name":"Dresden","geoJSON":{"type":"Point","coordinates":[13.764967144,51.1250912429]}},{"name":"Kenitra Air Base","geoJSON":{"type":"Point","coordinates":[-6.5977536281,34.2986673638]}},{"name":"Annemasse","geoJSON":{"type":"Point","coordinates":[6.2649108536,46.1957283286]}},{"name":"Nogales Int'l","geoJSON":{"type":"Point","coordinates":[-110.9727213017,31.2255371741]}},{"name":"Strasbourg","geoJSON":{"type":"Point","coordinates":[7.6278419669,48.5446961722]}},{"name":"Cologne\/Bonn","geoJSON":{"type":"Point","coordinates":[7.1223597552,50.8782596629]}},{"name":"Kimhae Int'l","geoJSON":{"type":"Point","coordinates":[128.948801379,35.1702840637]}},{"name":"Jeju Int'l","geoJSON":{"type":"Point","coordinates":[126.491629402,33.524717315]}},{"name":"Stavanger Sola","geoJSON":{"type":"Point","coordinates":[5.6298103297,58.8821564842]}},{"name":"Trondheim Vaernes","geoJSON":{"type":"Point","coordinates":[10.9168095241,63.4720293817]}},{"name":"Corumb\u00e1 Int'l","geoJSON":{"type":"Point","coordinates":[-57.6636078926,-19.0141662886]}},{"name":"Madeira","geoJSON":{"type":"Point","coordinates":[-16.7756374531,32.6933642847]}},{"name":"Foz do Igua\u00e7u Int'l","geoJSON":{"type":"Point","coordinates":[-54.4885922736,-25.5976832162]}},{"name":"Gov. Jorge Teixeira de Oliveira Int'l","geoJSON":{"type":"Point","coordinates":[-63.8984625004,-8.7144248286]}},{"name":"Bilbao","geoJSON":{"type":"Point","coordinates":[-2.9060901168,43.3050829811]}},{"name":"Palma de Mallorca","geoJSON":{"type":"Point","coordinates":[2.729976602,39.5657758586]}},{"name":"Tenerife N.","geoJSON":{"type":"Point","coordinates":[-16.3463175679,28.4875770268]}},{"name":"Gothenburg","geoJSON":{"type":"Point","coordinates":[12.2938269093,57.6857493535]}},{"name":"Lulea","geoJSON":{"type":"Point","coordinates":[22.1230271244,65.5490362478]}},{"name":"Abu Dhabi Int'l","geoJSON":{"type":"Point","coordinates":[54.6463293226,24.427227153]}},{"name":"Mohamed Boudiaf Int'l","geoJSON":{"type":"Point","coordinates":[6.6219466518,36.2834409442]}},{"name":"Aswan Int'l","geoJSON":{"type":"Point","coordinates":[32.8244372463,23.9682765442]}},{"name":"Rovaniemi","geoJSON":{"type":"Point","coordinates":[25.829440976,66.5595564169]}},{"name":"Cheddi Jagan Int'l","geoJSON":{"type":"Point","coordinates":[-58.2541191926,6.4985529081]}},{"name":"Cochin Int'l","geoJSON":{"type":"Point","coordinates":[76.3905198502,10.1551187628]}},{"name":"Eldoret Int'l","geoJSON":{"type":"Point","coordinates":[35.2236930658,0.4050714755]}},{"name":"Incheon Int'l","geoJSON":{"type":"Point","coordinates":[126.4508759808,37.4492088624]}},{"name":"Federal de Bachigualato Int'l","geoJSON":{"type":"Point","coordinates":[-107.4698637929,24.766804039]}},{"name":"Benazir Bhutto Int'l","geoJSON":{"type":"Point","coordinates":[73.1007936472,33.6074457508]}},{"name":"Brussels","geoJSON":{"type":"Point","coordinates":[4.4846403241,50.8972949642]}},{"name":"Abuja Int'l","geoJSON":{"type":"Point","coordinates":[7.2702599397,9.0043765978]}},{"name":"Arcata-Eureka","geoJSON":{"type":"Point","coordinates":[-124.1070655201,40.9719245381]}},{"name":"Austin-Bergstrom Int'l","geoJSON":{"type":"Point","coordinates":[-97.6668367646,30.2021081921]}},{"name":"Antalya","geoJSON":{"type":"Point","coordinates":[30.8025526439,36.9153233052]}},{"name":"Belfast Int'l","geoJSON":{"type":"Point","coordinates":[-6.2161694373,54.661557547]}},{"name":"Orio Al Serio","geoJSON":{"type":"Point","coordinates":[9.698917694,45.6654980561]}},{"name":"Kota Kinabalu Int'l","geoJSON":{"type":"Point","coordinates":[116.0510878734,5.9228944547]}},{"name":"Bengaluru Int'l","geoJSON":{"type":"Point","coordinates":[77.709557989,13.200610807]}},{"name":"Canberra Int'l","geoJSON":{"type":"Point","coordinates":[149.1907605397,-35.3071855903]}},{"name":"Port Columbus Int'l","geoJSON":{"type":"Point","coordinates":[-82.8840306427,39.9981181922]}},{"name":"Mohamed V Int'l","geoJSON":{"type":"Point","coordinates":[-7.5814559903,33.3747274815]}},{"name":"D\u00fcsseldorf Int'l","geoJSON":{"type":"Point","coordinates":[6.7649444661,51.2781820421]}},{"name":"Esenbo\u011fa Int'l","geoJSON":{"type":"Point","coordinates":[32.9930100772,40.1151278273]}},{"name":"Hamilton Int'l","geoJSON":{"type":"Point","coordinates":[175.3362214327,-37.8658411485]}},{"name":"Rajiv Gandhi Int'l","geoJSON":{"type":"Point","coordinates":[78.4295361345,17.2359831507]}},{"name":"John F Kennedy Int'l","geoJSON":{"type":"Point","coordinates":[-73.7863268609,40.6459595584]}},{"name":"Boryspil Int'l","geoJSON":{"type":"Point","coordinates":[30.8951621616,50.3409023389]}},{"name":"Khartoum","geoJSON":{"type":"Point","coordinates":[32.5501532966,15.5922226531]}},{"name":"Dane Cty. Reg. (Truax Field)","geoJSON":{"type":"Point","coordinates":[-89.3457847894,43.1363082386]}},{"name":"Minsk Int'l","geoJSON":{"type":"Point","coordinates":[28.0341933346,53.8893792398]}},{"name":"Palermo","geoJSON":{"type":"Point","coordinates":[13.1055309889,38.1863351085]}},{"name":"T.F. Green","geoJSON":{"type":"Point","coordinates":[-71.4357841446,41.7260019847]}},{"name":"Southwest Florida Int'l","geoJSON":{"type":"Point","coordinates":[-81.7551231409,26.5279288068]}},{"name":"Shenyang Taoxian Int'l","geoJSON":{"type":"Point","coordinates":[123.4879744303,41.634789134]}},{"name":"Sharjah Int'l","geoJSON":{"type":"Point","coordinates":[55.5205071949,25.3211964019]}},{"name":"San Jose Int'l","geoJSON":{"type":"Point","coordinates":[-121.9294289835,37.3694905909]}},{"name":"John Wayne","geoJSON":{"type":"Point","coordinates":[-117.8614892204,33.679485733]}},{"name":"Stuttgart","geoJSON":{"type":"Point","coordinates":[9.1939510895,48.6901051359]}},{"name":"Nacional Tob\u00edas Bola\u00f1os","geoJSON":{"type":"Point","coordinates":[-84.1386091972,9.9582785192]}},{"name":"Shenzhen Bao'an Int'l","geoJSON":{"type":"Point","coordinates":[113.8158527511,22.6465077148]}},{"name":"Louisville Int'l","geoJSON":{"type":"Point","coordinates":[-85.7417027597,38.1860207153]}},{"name":"Geneva","geoJSON":{"type":"Point","coordinates":[6.1079457742,46.2310095102]}},{"name":"Lyon-Saint Exupery","geoJSON":{"type":"Point","coordinates":[5.0759443181,45.7210186835]}},{"name":"Kansai Int'l","geoJSON":{"type":"Point","coordinates":[135.2444597725,34.4347941629]}},{"name":"Lisbon Portela","geoJSON":{"type":"Point","coordinates":[-9.1306944093,38.7707623428]}},{"name":"Tancredo Neves Int'l","geoJSON":{"type":"Point","coordinates":[-43.963581521,-19.6327821219]}},{"name":"Bromma","geoJSON":{"type":"Point","coordinates":[17.9456175406,59.3555902065]}},{"name":"Juanda Int'l","geoJSON":{"type":"Point","coordinates":[112.7770345949,-7.3835789853]}},{"name":"Astor Piazzolla Int'l","geoJSON":{"type":"Point","coordinates":[-57.5816150932,-37.9332161204]}},{"name":"Owen Roberts Int'l","geoJSON":{"type":"Point","coordinates":[-81.3576706162,19.2959107437]}},{"name":"Zhengzhou Xinzheng Int'l","geoJSON":{"type":"Point","coordinates":[113.8418313028,34.5263027199]}},{"name":"Dalian Zhoushuizi Int'l","geoJSON":{"type":"Point","coordinates":[121.5389137801,38.96157023]}},{"name":"Heraklion Int'l","geoJSON":{"type":"Point","coordinates":[25.1740558243,35.3369024101]}},{"name":"Tbilisi Int'l","geoJSON":{"type":"Point","coordinates":[44.9646146142,41.6694420187]}},{"name":"Cascais","geoJSON":{"type":"Point","coordinates":[-9.3545824026,38.7235353208]}},{"name":"Kaohsiung Int'l","geoJSON":{"type":"Point","coordinates":[120.3451563422,22.5717061054]}},{"name":"Sadiq Abubakar III","geoJSON":{"type":"Point","coordinates":[5.2002261603,12.9174824166]}},{"name":"Mariscal Sucre Int'l","geoJSON":{"type":"Point","coordinates":[-78.4899925546,-0.1455524085]}},{"name":"Karachi Civil","geoJSON":{"type":"Point","coordinates":[67.1521283593,24.898524369]}},{"name":"Kishinev S.E.","geoJSON":{"type":"Point","coordinates":[28.9360487562,46.93416199]}},{"name":"Jorge Ch\u00e1vez","geoJSON":{"type":"Point","coordinates":[-77.1075656931,-12.0237161502]}},{"name":"Thunder Bay Int'l","geoJSON":{"type":"Point","coordinates":[-89.3121421238,48.3718811493]}},{"name":"Vilnius","geoJSON":{"type":"Point","coordinates":[25.2807164497,54.6430549308]}},{"name":"Hsien Yang","geoJSON":{"type":"Point","coordinates":[108.7558113422,34.4429391054]}},{"name":"Del Norte Int'l","geoJSON":{"type":"Point","coordinates":[-100.2383941866,25.8598737677]}},{"name":"Fua'amotu Int'l","geoJSON":{"type":"Point","coordinates":[-175.135635,-21.24861]}},{"name":"Esfahan Int'l","geoJSON":{"type":"Point","coordinates":[51.8763916813,32.7460805344]}},{"name":"Harare Int'l","geoJSON":{"type":"Point","coordinates":[31.1014,-17.9228]}},{"name":"Kuwait Int'l","geoJSON":{"type":"Point","coordinates":[47.9714825593,29.2396800582]}},{"name":"Macdonald-Cartier Int'l","geoJSON":{"type":"Point","coordinates":[-75.664893387,45.3201348197]}},{"name":"Kabul Int'l","geoJSON":{"type":"Point","coordinates":[69.2100736271,34.5633978864]}},{"name":"Abidjan Port Bouet","geoJSON":{"type":"Point","coordinates":[-3.9322192917,5.2543984451]}},{"name":"General Juan N Alvarez Int'l","geoJSON":{"type":"Point","coordinates":[-99.754508562,16.7619673528]}},{"name":"Kotoka Int'l","geoJSON":{"type":"Point","coordinates":[-0.1714028557,5.6069815238]}},{"name":"Bole Int'l","geoJSON":{"type":"Point","coordinates":[38.7931904366,8.9817302758]}},{"name":"Aden Int'l","geoJSON":{"type":"Point","coordinates":[45.030602,12.8278]}},{"name":"Adelaide Int'l","geoJSON":{"type":"Point","coordinates":[138.5321014577,-34.9405860275]}},{"name":"Almaty Int'l","geoJSON":{"type":"Point","coordinates":[77.0120458771,43.3464943145]}},{"name":"Houari Boumediene","geoJSON":{"type":"Point","coordinates":[3.2120735352,36.6997206664]}},{"name":"Aleppo Int'l","geoJSON":{"type":"Point","coordinates":[37.2273414058,36.1846237314]}},{"name":"Sardar Vallabhbhai Patel Int'l","geoJSON":{"type":"Point","coordinates":[72.6209000884,23.0707454636]}},{"name":"Cerro Moreno Int'l","geoJSON":{"type":"Point","coordinates":[-70.4409908509,-23.4489545248]}},{"name":"Ashkhabad Northwest","geoJSON":{"type":"Point","coordinates":[58.3639659208,37.984853439]}},{"name":"Yohannes Iv Int'l","geoJSON":{"type":"Point","coordinates":[38.9063540136,15.2936159696]}},{"name":"Silvio Pettirossi Int'l","geoJSON":{"type":"Point","coordinates":[-57.5139078247,-25.2416592534]}},{"name":"Bermuda Int'l","geoJSON":{"type":"Point","coordinates":[-64.7027740687,32.3591739602]}},{"name":"Surcin","geoJSON":{"type":"Point","coordinates":[20.2912845947,44.8190766654]}},{"name":"Beirut Int'l","geoJSON":{"type":"Point","coordinates":[35.4930853618,33.8254400619]}},{"name":"Bairagarh","geoJSON":{"type":"Point","coordinates":[77.3408714714,23.285568487]}},{"name":"Bamako S\u00e9nou","geoJSON":{"type":"Point","coordinates":[-7.9472722697,12.5393363426]}},{"name":"Nashville Int'l","geoJSON":{"type":"Point","coordinates":[-86.6692867356,36.1314876362]}},{"name":"Brisbane Int'l","geoJSON":{"type":"Point","coordinates":[153.1202564188,-27.3853965939]}},{"name":"Boise Air Terminal","geoJSON":{"type":"Point","coordinates":[-116.2218410705,43.5689592235]}},{"name":"Wiley Post Will Rogers Mem.","geoJSON":{"type":"Point","coordinates":[-156.771835,71.289299]}},{"name":"Greater Buffalo Int'l","geoJSON":{"type":"Point","coordinates":[-78.7319965523,42.9340337494]}},{"name":"Bulawayo","geoJSON":{"type":"Point","coordinates":[28.6225520429,-20.0155684095]}},{"name":"Brunei Int'l","geoJSON":{"type":"Point","coordinates":[114.9331190292,4.9454752823]}},{"name":"Guangzhou Baiyun Int'l","geoJSON":{"type":"Point","coordinates":[113.2975165522,23.3891511573]}},{"name":"Carriel Sur Int'l","geoJSON":{"type":"Point","coordinates":[-73.0621061746,-36.7763727438]}},{"name":"Netaji Subhash Chandra Bose Int'l","geoJSON":{"type":"Point","coordinates":[88.440001013,22.6453893785]}},{"name":"Chittagong","geoJSON":{"type":"Point","coordinates":[91.8147107162,22.2455658586]}},{"name":"Christchurch Int'l","geoJSON":{"type":"Point","coordinates":[172.5386755652,-43.4885486784]}},{"name":"Conakry","geoJSON":{"type":"Point","coordinates":[-13.6210656252,9.5741811585]}},{"name":"Hopkins Int'l","geoJSON":{"type":"Point","coordinates":[-81.8384406064,41.4111916125]}},{"name":"Alfonso Bonilla Arag\u00f3n Int'l","geoJSON":{"type":"Point","coordinates":[-76.3850714728,3.5432863512]}},{"name":"Cotonou Cadjehon","geoJSON":{"type":"Point","coordinates":[2.3838000724,6.3582465035]}},{"name":"Ingeniero Ambrosio L.V. Taravella Int'l","geoJSON":{"type":"Point","coordinates":[-64.2123157671,-31.3156811685]}},{"name":"Rafael Nunez","geoJSON":{"type":"Point","coordinates":[-75.512334956,10.4449381765]}},{"name":"Canc\u00fan","geoJSON":{"type":"Point","coordinates":[-86.8744172507,21.0401966714]}},{"name":"General R F Villalobos Int'l","geoJSON":{"type":"Point","coordinates":[-105.9692046926,28.7039984998]}},{"name":"Zia Int'l Dhaka","geoJSON":{"type":"Point","coordinates":[90.4049241599,23.8481243218]}},{"name":"Darwin Int'l","geoJSON":{"type":"Point","coordinates":[130.8775014368,-12.4080559967]}},{"name":"Louis Botha","geoJSON":{"type":"Point","coordinates":[30.9457081941,-29.9659142508]}},{"name":"Lubumbashi Luano Int'l","geoJSON":{"type":"Point","coordinates":[27.5292,-11.5908]}},{"name":"Saiss","geoJSON":{"type":"Point","coordinates":[-4.9821463768,33.9305251845]}},{"name":"Kinshasa N Djili Int'l","geoJSON":{"type":"Point","coordinates":[15.4465162075,-4.389168822]}},{"name":"Freetown Lungi","geoJSON":{"type":"Point","coordinates":[-13.2002296786,8.6154236173]}},{"name":"Sunan","geoJSON":{"type":"Point","coordinates":[125.6753215712,39.2001771668]}},{"name":"Vasilyevka","geoJSON":{"type":"Point","coordinates":[74.4688003399,43.0554527233]}},{"name":"Sir Seretse Khama Int'l","geoJSON":{"type":"Point","coordinates":[25.9243808264,-24.5580718089]}},{"name":"Don Miguel Hidalgo Int'l","geoJSON":{"type":"Point","coordinates":[-103.3007662228,20.5246863485]}},{"name":"Glasgow Int'l","geoJSON":{"type":"Point","coordinates":[-4.43167797,55.864182857]}},{"name":"La Aurora","geoJSON":{"type":"Point","coordinates":[-90.5301811114,14.588160829]}},{"name":"Simon Bolivar Int'l","geoJSON":{"type":"Point","coordinates":[-79.8870096439,-2.158337907]}},{"name":"Noi Bai","geoJSON":{"type":"Point","coordinates":[105.8037594368,21.2145596707]}},{"name":"Jos\u00e9 Mart\u00ed Int'l","geoJSON":{"type":"Point","coordinates":[-82.4074206289,22.9973533364]}},{"name":"Borg El Arab Int'l","geoJSON":{"type":"Point","coordinates":[29.6926660152,30.9183712786]}},{"name":"King Abdul Aziz Int'l","geoJSON":{"type":"Point","coordinates":[39.150499678,21.6706857878]}},{"name":"Kano Mallam Aminu Int'l","geoJSON":{"type":"Point","coordinates":[8.522137184,12.0457071602]}},{"name":"Kashi","geoJSON":{"type":"Point","coordinates":[76.013014806,39.5379686306]}},{"name":"Norman Manley Int'l","geoJSON":{"type":"Point","coordinates":[-76.7786897617,17.9375751553]}},{"name":"Tribhuvan Int'l","geoJSON":{"type":"Point","coordinates":[85.3571395317,27.7002816752]}},{"name":"Luanda 4 de Fevereiro","geoJSON":{"type":"Point","coordinates":[13.2347957503,-8.8483132792]}},{"name":"Pulkovo 2","geoJSON":{"type":"Point","coordinates":[30.3070976455,59.8054061602]}},{"name":"Allama Iqbal Int'l","geoJSON":{"type":"Point","coordinates":[74.4108810182,31.5206296518]}},{"name":"Kamuzu Int'l","geoJSON":{"type":"Point","coordinates":[33.782788502,-13.7886228237]}},{"name":"Lagos Murtala Muhammed","geoJSON":{"type":"Point","coordinates":[3.3211243528,6.5782594454]}},{"name":"El Alto Int'l","geoJSON":{"type":"Point","coordinates":[-68.1780055278,-16.5098792214]}},{"name":"Lusaka Int'l","geoJSON":{"type":"Point","coordinates":[28.4455443211,-15.3268522509]}},{"name":"Luxor","geoJSON":{"type":"Point","coordinates":[32.7032970849,25.6730347786]}},{"name":"Chennai Int'l","geoJSON":{"type":"Point","coordinates":[80.1637759732,12.9825301669]}},{"name":"La Chinita Int'l","geoJSON":{"type":"Point","coordinates":[-71.7237688095,10.5557594685]}},{"name":"Jos\u00e9 Mar\u00eda C\u00f3rdova","geoJSON":{"type":"Point","coordinates":[-75.42695574,6.1710016144]}},{"name":"Memphis Int'l","geoJSON":{"type":"Point","coordinates":[-89.9816280353,35.044410124]}},{"name":"Augusto Cesar Sandino Int'l","geoJSON":{"type":"Point","coordinates":[-86.171284623,12.1446358734]}},{"name":"Mashhad","geoJSON":{"type":"Point","coordinates":[59.6421943574,36.2275503135]}},{"name":"Miami Int'l","geoJSON":{"type":"Point","coordinates":[-80.2789718277,25.7949407212]}},{"name":"Lic M Crecencio Rejon Int'l","geoJSON":{"type":"Point","coordinates":[-89.6630235736,20.9338603864]}},{"name":"Luqa","geoJSON":{"type":"Point","coordinates":[14.4952644555,35.8489307944]}},{"name":"Moi Int'l","geoJSON":{"type":"Point","coordinates":[39.602663187,-4.0326526258]}},{"name":"Moshoeshoe I Int'l","geoJSON":{"type":"Point","coordinates":[27.5592160334,-29.4555740046]}},{"name":"New Orleans Int'l","geoJSON":{"type":"Point","coordinates":[-90.2566939481,29.9851141461]}},{"name":"Multan","geoJSON":{"type":"Point","coordinates":[71.4189954329,30.1950780905]}},{"name":"Carrasco Int'l","geoJSON":{"type":"Point","coordinates":[-56.0266361463,-34.8410485989]}},{"name":"General Rafael Buelna Int'l","geoJSON":{"type":"Point","coordinates":[-106.2700166179,23.1665960971]}},{"name":"Nassau Int'l","geoJSON":{"type":"Point","coordinates":[-77.4648472291,25.0486910601]}},{"name":"Ndjamena","geoJSON":{"type":"Point","coordinates":[15.0330446386,12.1295400184]}},{"name":"Niamey","geoJSON":{"type":"Point","coordinates":[2.1773067118,13.4767572808]}},{"name":"Mactan-Cebu Int'l","geoJSON":{"type":"Point","coordinates":[123.9791345087,10.3158756727]}},{"name":"Nova Lisboa","geoJSON":{"type":"Point","coordinates":[15.749761846,-12.8025414576]}},{"name":"Eppley Airfield","geoJSON":{"type":"Point","coordinates":[-95.8994157953,41.2997111453]}},{"name":"Nome","geoJSON":{"type":"Point","coordinates":[-165.4416417123,64.5072207027]}},{"name":"Ouagadougou","geoJSON":{"type":"Point","coordinates":[-1.5138053617,12.353580026]}},{"name":"Mais Gate Int'l","geoJSON":{"type":"Point","coordinates":[-72.294478026,18.5756829054]}},{"name":"Puebla","geoJSON":{"type":"Point","coordinates":[-98.3757597904,19.1637935466]}},{"name":"Portland Int'l","geoJSON":{"type":"Point","coordinates":[-122.5927388813,45.5889569315]}},{"name":"Perth Int'l","geoJSON":{"type":"Point","coordinates":[115.9742249422,-31.9411297946]}},{"name":"H F Verwoerd","geoJSON":{"type":"Point","coordinates":[25.6117777568,-33.9840877431]}},{"name":"El Tepual Int'l","geoJSON":{"type":"Point","coordinates":[-73.0983841336,-41.4333820702]}},{"name":"Pochentong","geoJSON":{"type":"Point","coordinates":[104.8450276125,11.5526449177]}},{"name":"Pune","geoJSON":{"type":"Point","coordinates":[73.908983811,18.5791766115]}},{"name":"Port Moresby Int'l","geoJSON":{"type":"Point","coordinates":[147.211250856,-9.4386526932]}},{"name":"Tocumen Int'l","geoJSON":{"type":"Point","coordinates":[-79.3871348215,9.0668724227]}},{"name":"Carlos Ib\u00e1\u00f1ez de Campo Int'l","geoJSON":{"type":"Point","coordinates":[-70.8431237851,-53.0050698255]}},{"name":"Durham Int'l","geoJSON":{"type":"Point","coordinates":[-78.7913814007,35.8752323452]}},{"name":"Mingaladon","geoJSON":{"type":"Point","coordinates":[96.1341946115,16.9011542818]}},{"name":"Riga","geoJSON":{"type":"Point","coordinates":[23.9793791117,56.9220038786]}},{"name":"Sanaa Int'l","geoJSON":{"type":"Point","coordinates":[44.2246467903,15.4739027756]}},{"name":"Baghdad Int'l","geoJSON":{"type":"Point","coordinates":[44.2289125353,33.2681629864]}},{"name":"De Las Am\u00e9ricas Int'l","geoJSON":{"type":"Point","coordinates":[-69.6764726755,18.4302196948]}},{"name":"Tan Son Nhat","geoJSON":{"type":"Point","coordinates":[106.6642461414,10.8163005572]}},{"name":"Thessaloniki","geoJSON":{"type":"Point","coordinates":[22.9764353611,40.5238736888]}},{"name":"Vrazhdebna","geoJSON":{"type":"Point","coordinates":[23.4024521358,42.6891841273]}},{"name":"Surat","geoJSON":{"type":"Point","coordinates":[72.7424384373,21.1204503297]}},{"name":"Nausori Int'l","geoJSON":{"type":"Point","coordinates":[178.56004837,-18.0458996923]}},{"name":"Shiraz Int'l","geoJSON":{"type":"Point","coordinates":[52.5897712745,29.5458013843]}},{"name":"Gen Francisco J Mina Int'l","geoJSON":{"type":"Point","coordinates":[-97.8698137568,22.2893319525]}},{"name":"Toncontin Int'l","geoJSON":{"type":"Point","coordinates":[-87.2192116349,14.0599852192]}},{"name":"Mehrabad Int'l","geoJSON":{"type":"Point","coordinates":[51.3208069718,35.6913743305]}},{"name":"Tirane Rinas","geoJSON":{"type":"Point","coordinates":[19.715032405,41.4208514681]}},{"name":"General Abelardo L Rodriguez Int'l","geoJSON":{"type":"Point","coordinates":[-116.9754760956,32.5460499135]}},{"name":"Jose Maria Morelos Y Pavon","geoJSON":{"type":"Point","coordinates":[-99.5706494464,19.3386880423]}},{"name":"Ulemiste","geoJSON":{"type":"Point","coordinates":[24.79896487,59.4165014697]}},{"name":"Ben Gurion","geoJSON":{"type":"Point","coordinates":[34.8708499181,32.0007468502]}},{"name":"S\u00e3o Tom\u00e9 Salazar","geoJSON":{"type":"Point","coordinates":[6.7128219301,0.3747442137]}},{"name":"Antananarivo Ivato","geoJSON":{"type":"Point","coordinates":[47.475354001,-18.7993348763]}},{"name":"Tampa Int'l","geoJSON":{"type":"Point","coordinates":[-82.5348242521,27.9800400852]}},{"name":"Zim Valencia","geoJSON":{"type":"Point","coordinates":[-67.9223617122,10.1540056884]}},{"name":"Gumrak","geoJSON":{"type":"Point","coordinates":[44.3547679685,48.7916764658]}},{"name":"Vientiane","geoJSON":{"type":"Point","coordinates":[102.5682381957,17.9754595948]}},{"name":"Viru Viru Int'l","geoJSON":{"type":"Point","coordinates":[-63.1403888218,-17.6479468258]}},{"name":"Wellington Int'l","geoJSON":{"type":"Point","coordinates":[174.8116652682,-41.3289891845]}},{"name":"Prince Rupert","geoJSON":{"type":"Point","coordinates":[-130.445587,54.292]}},{"name":"Windsor","geoJSON":{"type":"Point","coordinates":[-82.9600877389,42.2658784727]}},{"name":"Regina","geoJSON":{"type":"Point","coordinates":[-104.6554339754,50.4332192867]}},{"name":"Vancouver Int'l","geoJSON":{"type":"Point","coordinates":[-123.1808670038,49.1935590396]}},{"name":"Winnipeg Int'l","geoJSON":{"type":"Point","coordinates":[-97.226769481,49.9033302472]}},{"name":"John G Diefenbaker Int'l","geoJSON":{"type":"Point","coordinates":[-106.6901819676,52.1701439447]}},{"name":"Whitehorse Int'l","geoJSON":{"type":"Point","coordinates":[-135.0762100894,60.7141521481]}},{"name":"Calgary Int'l","geoJSON":{"type":"Point","coordinates":[-114.0105605002,51.1308572568]}},{"name":"Charlottetown","geoJSON":{"type":"Point","coordinates":[-63.1312341333,46.2858131368]}},{"name":"Churchill","geoJSON":{"type":"Point","coordinates":[-94.0813639506,58.749723785]}},{"name":"St John's Int'l","geoJSON":{"type":"Point","coordinates":[-52.7433337429,47.6131179008]}},{"name":"Yellowknife","geoJSON":{"type":"Point","coordinates":[-114.437846335,62.470737361]}},{"name":"Zagreb","geoJSON":{"type":"Point","coordinates":[16.0615138009,45.7333266731]}},{"name":"Zanzibar","geoJSON":{"type":"Point","coordinates":[39.2223319842,-6.2185703462]}},{"name":"Reykjavik Air Terminal","geoJSON":{"type":"Point","coordinates":[-21.9466344031,64.131872861]}},{"name":"Arkhangelsk-Talagi","geoJSON":{"type":"Point","coordinates":[40.7133465695,64.596743773]}},{"name":"Kazan Int'l","geoJSON":{"type":"Point","coordinates":[49.2984458036,55.608060143]}},{"name":"Paris Orly","geoJSON":{"type":"Point","coordinates":[2.3673791278,48.7313030458]}},{"name":"Qu\u00e9bec","geoJSON":{"type":"Point","coordinates":[-71.3839280712,46.7915684363]}},{"name":"Montr\u00e9al-Trudeau","geoJSON":{"type":"Point","coordinates":[-73.749316265,45.4583512295]}},{"name":"Narita Int'l","geoJSON":{"type":"Point","coordinates":[140.3844017092,35.7640560728]}},{"name":"Chubu Centrair Int'l","geoJSON":{"type":"Point","coordinates":[136.8147712868,34.8590296958]}},{"name":"Okadama","geoJSON":{"type":"Point","coordinates":[141.3821004501,43.1106495991]}},{"name":"Bergen Flesland","geoJSON":{"type":"Point","coordinates":[5.2272531156,60.2890610503]}},{"name":"Troms\u00f8 Langnes","geoJSON":{"type":"Point","coordinates":[18.9072624292,69.6796790473]}},{"name":"Val de Caes Int'l","geoJSON":{"type":"Point","coordinates":[-48.4795602894,-1.389746288]}},{"name":"Campo Grande Int'l","geoJSON":{"type":"Point","coordinates":[-54.6689498781,-20.457271736]}},{"name":"Afonso Pena Int'l","geoJSON":{"type":"Point","coordinates":[-49.1737093663,-25.5360001431]}},{"name":"Pinto Martins Int'l","geoJSON":{"type":"Point","coordinates":[-38.5407472498,-3.7785949623]}},{"name":"S\u00e3o Paulo-Guarulhos Int'l","geoJSON":{"type":"Point","coordinates":[-46.4817536088,-23.426115577]}},{"name":"Santa Genoveva","geoJSON":{"type":"Point","coordinates":[-49.2266464906,-16.6323665722]}},{"name":"Salgado Filho Int'l","geoJSON":{"type":"Point","coordinates":[-51.1770409488,-29.9901930171]}},{"name":"Gilberto Freyre Int'l","geoJSON":{"type":"Point","coordinates":[-34.9182667175,-8.1316255308]}},{"name":"Deputado Luis Eduardo Magalhaes Int'l","geoJSON":{"type":"Point","coordinates":[-38.3347989912,-12.914361497]}},{"name":"El Plumerillo","geoJSON":{"type":"Point","coordinates":[-68.7984838394,-32.8278001693]}},{"name":"Eduardo Gomes Int'l","geoJSON":{"type":"Point","coordinates":[-60.0460645899,-3.0321390063]}},{"name":"Yaound\u00e9 Nsimalen Int'l","geoJSON":{"type":"Point","coordinates":[11.5479941397,3.7148452071]}},{"name":"Shanghai Pudong Int'l","geoJSON":{"type":"Point","coordinates":[121.8015187606,31.1523090296]}},{"name":"Marka Int'l","geoJSON":{"type":"Point","coordinates":[35.9841052362,31.9741994015]}},{"name":"Male Int'l","geoJSON":{"type":"Point","coordinates":[73.5273902837,4.1887009032]}},{"name":"Gen. Heriberto Jara Int'l","geoJSON":{"type":"Point","coordinates":[-96.1835702144,19.1424237025]}},{"name":"Osvaldo Vieira Int'l","geoJSON":{"type":"Point","coordinates":[-15.6511855617,11.8889231455]}},{"name":"Francisco Bangoy Int'l","geoJSON":{"type":"Point","coordinates":[125.6450666094,7.1305374616]}},{"name":"Seychelles Int'l","geoJSON":{"type":"Point","coordinates":[55.5115519247,-4.6710691418]}},{"name":"L\u00e9opold Sedar Senghor Int'l","geoJSON":{"type":"Point","coordinates":[-17.4904079077,14.7456306147]}},{"name":"Port Sudan New Int'l","geoJSON":{"type":"Point","coordinates":[37.2387475981,19.4341052385]}},{"name":"Tashkent Int'l","geoJSON":{"type":"Point","coordinates":[69.2666137241,41.2622338767]}},{"name":"Copenhagen","geoJSON":{"type":"Point","coordinates":[12.6493508685,55.6285017222]}},{"name":"Aeroportul National Bucuresti-Baneasa","geoJSON":{"type":"Point","coordinates":[26.0857251588,44.497041456]}},{"name":"Ferihegy","geoJSON":{"type":"Point","coordinates":[19.2622301678,47.4332742692]}},{"name":"Chongqing Jiangbei Int'l","geoJSON":{"type":"Point","coordinates":[106.6380197048,29.7240422242]}},{"name":"Douglas Int'l","geoJSON":{"type":"Point","coordinates":[-80.9439277343,35.2204281686]}},{"name":"Detroit Metro","geoJSON":{"type":"Point","coordinates":[-83.3478935066,42.2257204508]}},{"name":"Dublin","geoJSON":{"type":"Point","coordinates":[-6.2438849104,53.427008285]}},{"name":"Fairbanks Int'l","geoJSON":{"type":"Point","coordinates":[-147.8657211208,64.8180981117]}},{"name":"Hamburg","geoJSON":{"type":"Point","coordinates":[10.0056478309,53.6320011641]}},{"name":"Kuala Lumpur Int'l","geoJSON":{"type":"Point","coordinates":[101.7138863257,2.7475129579]}},{"name":"Mccarran Int'l","geoJSON":{"type":"Point","coordinates":[-115.1513239513,36.0849602383]}},{"name":"Orlando Int'l","geoJSON":{"type":"Point","coordinates":[-81.3073713308,28.4311506791]}},{"name":"Minneapolis St. Paul Int'l","geoJSON":{"type":"Point","coordinates":[-93.2081003718,44.8820263632]}},{"name":"Franz-Josef-Strauss","geoJSON":{"type":"Point","coordinates":[11.7880627192,48.3538373962]}},{"name":"Philadelphia Int'l","geoJSON":{"type":"Point","coordinates":[-75.2429857677,39.8760872364]}},{"name":"Sky Harbor Int'l","geoJSON":{"type":"Point","coordinates":[-112.0136352977,33.4358607639]}},{"name":"Salt Lake City Int'l","geoJSON":{"type":"Point","coordinates":[-111.98198488,40.7867290054]}},{"name":"Lambert St Louis Int'l","geoJSON":{"type":"Point","coordinates":[-90.3659545351,38.7427163155]}},{"name":"Okecie Int'l","geoJSON":{"type":"Point","coordinates":[20.9727263384,52.1710267493]}},{"name":"Zurich Int'l","geoJSON":{"type":"Point","coordinates":[8.5622127953,47.4523895065]}},{"name":"Gosselies","geoJSON":{"type":"Point","coordinates":[4.4543736298,50.457129655]}},{"name":"Munich Freight Terminal","geoJSON":{"type":"Point","coordinates":[11.7694828594,48.3497964078]}},{"name":"Barcelona","geoJSON":{"type":"Point","coordinates":[2.0780033498,41.3031552797]}},{"name":"Ruzyn","geoJSON":{"type":"Point","coordinates":[14.2674849854,50.1076511704]}},{"name":"Hong Kong Int'l","geoJSON":{"type":"Point","coordinates":[113.9350163874,22.3153328281]}},{"name":"Taoyuan","geoJSON":{"type":"Point","coordinates":[121.2313704533,25.0767411043]}},{"name":"Schiphol","geoJSON":{"type":"Point","coordinates":[4.7643769323,52.308932389]}},{"name":"Singapore Changi","geoJSON":{"type":"Point","coordinates":[103.986413881,1.3561608353]}},{"name":"London Heathrow","geoJSON":{"type":"Point","coordinates":[-0.4531566521,51.47099588]}},{"name":"Auckland Int'l","geoJSON":{"type":"Point","coordinates":[174.7917194337,-37.0063551143]}},{"name":"Anchorage Int'l","geoJSON":{"type":"Point","coordinates":[-149.9817251006,61.1728936745]}},{"name":"Hartsfield-Jackson Atlanta Int'l","geoJSON":{"type":"Point","coordinates":[-84.4253974336,33.6405290807]}},{"name":"Beijing Capital","geoJSON":{"type":"Point","coordinates":[116.5881740047,40.0787663363]}},{"name":"Eldorado Int'l","geoJSON":{"type":"Point","coordinates":[-74.1433718001,4.6988327619]}},{"name":"Chhatrapati Shivaji Int'l","geoJSON":{"type":"Point","coordinates":[72.87456395,19.0951019488]}},{"name":"Gen E L Logan Int'l","geoJSON":{"type":"Point","coordinates":[-71.0164066173,42.3665658199]}},{"name":"Baltimore-Washington Int'l Thurgood Marshall","geoJSON":{"type":"Point","coordinates":[-76.6686428352,39.1793943584]}},{"name":"Cairo Int'l","geoJSON":{"type":"Point","coordinates":[31.3997430067,30.1119904386]}},{"name":"Casablanca-Anfa","geoJSON":{"type":"Point","coordinates":[-7.6632188077,33.5627883851]}},{"name":"Sim\u00f3n Bolivar Int'l","geoJSON":{"type":"Point","coordinates":[-67.0057488076,10.5973549146]}},{"name":"Cape Town Int'l","geoJSON":{"type":"Point","coordinates":[18.5976565083,-33.970446612]}},{"name":"Chengdushuang Liu","geoJSON":{"type":"Point","coordinates":[103.9561364817,30.5810712647]}},{"name":"Indira Gandhi Int'l","geoJSON":{"type":"Point","coordinates":[77.0878362565,28.5592039761]}},{"name":"Denver Int'l","geoJSON":{"type":"Point","coordinates":[-104.6737973385,39.8494613882]}},{"name":"Dallas-Ft. Worth Int'l","geoJSON":{"type":"Point","coordinates":[-97.0403710741,32.9001505595]}},{"name":"Don Muang Int'l","geoJSON":{"type":"Point","coordinates":[100.6025786265,13.920276601]}},{"name":"Dubai Int'l","geoJSON":{"type":"Point","coordinates":[55.3540769172,25.2525655938]}},{"name":"Newark Int'l","geoJSON":{"type":"Point","coordinates":[-74.1771472797,40.6904798279]}},{"name":"Ministro Pistarini Int'l","geoJSON":{"type":"Point","coordinates":[-58.5412456939,-34.813646938]}},{"name":"Fort Lauderdale Hollywood Int'l","geoJSON":{"type":"Point","coordinates":[-80.1452588465,26.0717095747]}},{"name":"George Bush Intercontinental","geoJSON":{"type":"Point","coordinates":[-95.3337047913,29.9865909035]}},{"name":"Atat\u00fcrk Hava Limani","geoJSON":{"type":"Point","coordinates":[28.8195493088,40.9778388178]}},{"name":"OR Tambo Int'l","geoJSON":{"type":"Point","coordinates":[28.2319885649,-26.1320953995]}},{"name":"Juneau Int'l","geoJSON":{"type":"Point","coordinates":[-134.5835730379,58.3589441046]}},{"name":"Los Angeles Int'l","geoJSON":{"type":"Point","coordinates":[-118.4024685485,33.9441742544]}},{"name":"Linate","geoJSON":{"type":"Point","coordinates":[9.2799662969,45.4603938456]}},{"name":"Melbourne Int'l","geoJSON":{"type":"Point","coordinates":[144.8489980911,-37.6699411968]}},{"name":"Lic Benito Juarez Int'l","geoJSON":{"type":"Point","coordinates":[-99.0826079514,19.435469572]}},{"name":"Ninoy Aquino Int'l","geoJSON":{"type":"Point","coordinates":[121.0041220834,14.5068323763]}},{"name":"Jomo Kenyatta Int'l","geoJSON":{"type":"Point","coordinates":[36.925088749,-1.3305296435]}},{"name":"Honolulu Int'l","geoJSON":{"type":"Point","coordinates":[-157.9197831738,21.332022315]}},{"name":"Chicago O'Hare Int'l","geoJSON":{"type":"Point","coordinates":[-87.9051343907,41.9765291024]}},{"name":"King Khalid Int'l","geoJSON":{"type":"Point","coordinates":[46.7018290235,24.9590317437]}},{"name":"Arturo Merino Benitez Int'l","geoJSON":{"type":"Point","coordinates":[-70.7936860163,-33.3968336343]}},{"name":"Tacoma Int'l","geoJSON":{"type":"Point","coordinates":[-122.3022897229,47.4435819127]}},{"name":"San Francisco Int'l","geoJSON":{"type":"Point","coordinates":[-122.3834703444,37.6170250868]}},{"name":"Hongqiao","geoJSON":{"type":"Point","coordinates":[121.3411837886,31.1872574314]}},{"name":"Sheremtyevo","geoJSON":{"type":"Point","coordinates":[37.4159690348,55.9664471725]}},{"name":"Toronto-Pearson Int'l","geoJSON":{"type":"Point","coordinates":[-79.6114193247,43.6809595186]}},{"name":"Kingsford Smith","geoJSON":{"type":"Point","coordinates":[151.1660673056,-33.9365832058]}},{"name":"Helsinki Vantaa","geoJSON":{"type":"Point","coordinates":[24.9682078666,60.3187158913]}},{"name":"Charles de Gaulle Int'l","geoJSON":{"type":"Point","coordinates":[2.5418677674,49.0144200969]}},{"name":"Berlin-Tegel Int'l","geoJSON":{"type":"Point","coordinates":[13.2903090925,52.5544287044]}},{"name":"Vienna Schwechat Int'l","geoJSON":{"type":"Point","coordinates":[16.5607679642,48.1197563053]}},{"name":"Frankfurt Int'l","geoJSON":{"type":"Point","coordinates":[8.5718228691,50.0506770895]}},{"name":"Leonardo da Vinci Int'l","geoJSON":{"type":"Point","coordinates":[12.2501008974,41.7950786307]}},{"name":"Osaka Int'l","geoJSON":{"type":"Point","coordinates":[135.4424752562,34.7901980849]}},{"name":"Gimpo Int'l","geoJSON":{"type":"Point","coordinates":[126.8023928603,37.55730054]}},{"name":"Oslo Gardermoen","geoJSON":{"type":"Point","coordinates":[11.0991032763,60.1935783171]}},{"name":"Juscelino Kubitschek Int'l","geoJSON":{"type":"Point","coordinates":[-47.9207885134,-15.8699985003]}},{"name":"Congonhas Int'l","geoJSON":{"type":"Point","coordinates":[-46.6591155302,-23.626858827]}},{"name":"Rio de Janeiro-Antonio Carlos Jobim Int'l","geoJSON":{"type":"Point","coordinates":[-43.2483813791,-22.8123437125]}},{"name":"Madrid Barajas","geoJSON":{"type":"Point","coordinates":[-3.5690266546,40.4681282734]}},{"name":"Luis Mu\u00f1oz Marin","geoJSON":{"type":"Point","coordinates":[-66.0042299758,18.4380770735]}},{"name":"Arlanda","geoJSON":{"type":"Point","coordinates":[17.9307299017,59.6511203397]}},{"name":"Soekarno-Hatta Int'l","geoJSON":{"type":"Point","coordinates":[106.6542961512,-6.126602956]}},{"name":"Eleftherios Venizelos Int'l","geoJSON":{"type":"Point","coordinates":[23.9471160554,37.9362331299]}}]